{"type": "FeatureCollection", "features": [{"type": "Feature", "geometry": {"type": "Point", "coordinates": [-73.98228, 40.67951]}, "properties": {"name": "THREES BREWING", "address": "333 339 DOUGLAS ST", "license_detail": "Farm Brewer", "license_id": "0015-23-108010", "bev_category": "Brewery / Special", "dashboard_url": "https://cb6brooklyn.github.io/bkcb6/?addr=333+339+DOUGLAS+ST%2C+Brooklyn%2C+NY"}}, {"type": "Feature", "geometry": {"type": "Point", "coordinates": [-74.01518, 40.67727]}, "properties": {"name": "WIDOW JANE DISTILLERIES LLC", "address": "216 218 CONOVER ST", "license_detail": "Micro-Distillery", "license_id": "0052-23-126467", "bev_category": "Brewery / Special", "dashboard_url": "https://cb6brooklyn.github.io/bkcb6/?addr=216+218+CONOVER+ST%2C+Brooklyn%2C+NY"}}, {"type": "Feature", "geometry": {"type": "Point", "coordinates": [-73.98356, 40.6784]}, "properties": {"name": "WILD EAST BREWING COMPANY LLC", "address": "623 SACKETT ST", "license_detail": "Farm Brewer", "license_id": "0015-22-127055", "bev_category": "Brewery / Special", "dashboard_url": "https://cb6brooklyn.github.io/bkcb6/?addr=623+SACKETT+ST%2C+Brooklyn%2C+NY"}}, {"type": "Feature", "geometry": {"type": "Point", "coordinates": [-74.01877, 40.67711]}, "properties": {"name": "STRONG ROPE BREWERY", "address": "185 Van Dyke St, Suites 114 - 118", "license_detail": "Farm Brewer", "license_id": "0015-22-123877", "bev_category": "Brewery / Special", "dashboard_url": "https://cb6brooklyn.github.io/bkcb6/?addr=185+Van+Dyke+St%2C+Suites+114+-+118%2C+Brooklyn%2C+NY"}}, {"type": "Feature", "geometry": {"type": "Point", "coordinates": [-73.99917, 40.67369]}, "properties": {"name": "OTHER HALF BREWING COMPANY, INC.", "address": "195 CENTRE ST", "license_detail": "Farm Brewer", "license_id": "0015-17-104194", "bev_category": "Brewery / Special", "dashboard_url": "https://cb6brooklyn.github.io/bkcb6/?addr=195+CENTRE+ST%2C+Brooklyn%2C+NY"}}, {"type": "Feature", "geometry": {"type": "Point", "coordinates": [-74.01206, 40.67386]}, "properties": {"name": "SIXPOINT CRAFT ALES,SIXPOINT BREWERY", "address": "40 VAN DYKE ST", "license_detail": "Farm Brewer", "license_id": "0015-21-106689", "bev_category": "Brewery / Special", "dashboard_url": "https://cb6brooklyn.github.io/bkcb6/?addr=40+VAN+DYKE+ST%2C+Brooklyn%2C+NY"}}, {"type": "Feature", "geometry": {"type": "Point", "coordinates": [-74.01518, 40.67727]}, "properties": {"name": "WIDOW JANE DISTILLERIES LLC", "address": "216 218 CONOVER ST", "license_detail": "Farm Distillery", "license_id": "0056-23-114742", "bev_category": "Brewery / Special", "dashboard_url": "https://cb6brooklyn.github.io/bkcb6/?addr=216+218+CONOVER+ST%2C+Brooklyn%2C+NY"}}, {"type": "Feature", "geometry": {"type": "Point", "coordinates": [-74.01877, 40.67711]}, "properties": {"name": "THE RED HOOK WINERY", "address": "185 VAN DYKE ST", "license_detail": "Farm Cidery", "license_id": "0025-24-118996", "bev_category": "Brewery / Special", "dashboard_url": "https://cb6brooklyn.github.io/bkcb6/?addr=185+VAN+DYKE+ST%2C+Brooklyn%2C+NY"}}, {"type": "Feature", "geometry": {"type": "Point", "coordinates": [-73.98356, 40.6784]}, "properties": {"name": "WILD EAST BREWING COMPANY LLC", "address": "623 SACKETT ST", "license_detail": "Micro-Brewery", "license_id": "0014-22-116236", "bev_category": "Brewery / Special", "dashboard_url": "https://cb6brooklyn.github.io/bkcb6/?addr=623+SACKETT+ST%2C+Brooklyn%2C+NY"}}, {"type": "Feature", "geometry": {"type": "Point", "coordinates": [-74.00945, 40.67361]}, "properties": {"name": "Brooklyn Craft Works", "address": "6 Bay St Ste 1", "license_detail": "Micro-Distillery", "license_id": "0052-25-129016", "bev_category": "Brewery / Special", "dashboard_url": "https://cb6brooklyn.github.io/bkcb6/?addr=6+Bay+St+Ste+1%2C+Brooklyn%2C+NY"}}, {"type": "Feature", "geometry": {"type": "Point", "coordinates": [-74.01742, 40.67751]}, "properties": {"name": "RED HOOK WINERY", "address": "204 VAN DYKE ST SUITE 325A", "license_detail": "Winery", "license_id": "0031-22-103903", "bev_category": "Brewery / Special", "dashboard_url": "https://cb6brooklyn.github.io/bkcb6/?addr=204+VAN+DYKE+ST+SUITE+325A%2C+Brooklyn%2C+NY"}}, {"type": "Feature", "geometry": {"type": "Point", "coordinates": [-74.01206, 40.67386]}, "properties": {"name": "SIXPOINT CRAFT ALES,SIXPOINT BREWERY", "address": "40 VAN DYKE ST", "license_detail": "Micro-Brewery", "license_id": "0014-20-103899", "bev_category": "Brewery / Special", "dashboard_url": "https://cb6brooklyn.github.io/bkcb6/?addr=40+VAN+DYKE+ST%2C+Brooklyn%2C+NY"}}, {"type": "Feature", "geometry": {"type": "Point", "coordinates": [-73.98228, 40.67951]}, "properties": {"name": "THREES BREWING", "address": "333 339 DOUGLAS ST", "license_detail": "Micro-Brewery", "license_id": "0014-22-116364", "bev_category": "Brewery / Special", "dashboard_url": "https://cb6brooklyn.github.io/bkcb6/?addr=333+339+DOUGLAS+ST%2C+Brooklyn%2C+NY"}}, {"type": "Feature", "geometry": {"type": "Point", "coordinates": [-73.99917, 40.67369]}, "properties": {"name": "OTHER HALF BREWING COMPANY, INC.", "address": "195 CENTRE ST", "license_detail": "Micro-Brewery", "license_id": "0014-17-104429", "bev_category": "Brewery / Special", "dashboard_url": "https://cb6brooklyn.github.io/bkcb6/?addr=195+CENTRE+ST%2C+Brooklyn%2C+NY"}}, {"type": "Feature", "geometry": {"type": "Point", "coordinates": [-74.00945, 40.67361]}, "properties": {"name": "Brooklyn Craft Works", "address": "6 Bay St Ste 1", "license_detail": "Farm Distillery", "license_id": "0056-25-129019", "bev_category": "Brewery / Special", "dashboard_url": "https://cb6brooklyn.github.io/bkcb6/?addr=6+Bay+St+Ste+1%2C+Brooklyn%2C+NY"}}, {"type": "Feature", "geometry": {"type": "Point", "coordinates": [-73.99418, 40.68125]}, "properties": {"name": "Liz's Book Bar", "address": "315 Smith St", "license_detail": "Bar / Food & Beverage \u2014 Wine & Beer", "license_id": "0267-24-134140", "bev_category": "Wine & Beer", "dashboard_url": "https://cb6brooklyn.github.io/bkcb6/?addr=315+Smith+St%2C+Brooklyn%2C+NY"}}, {"type": "Feature", "geometry": {"type": "Point", "coordinates": [-73.9948, 40.68468]}, "properties": {"name": "Saturn Road LLC", "address": "276 Court St", "license_detail": "Bar / Food & Beverage \u2014 Wine & Beer", "license_id": "0267-25-107856", "bev_category": "Wine & Beer", "dashboard_url": "https://cb6brooklyn.github.io/bkcb6/?addr=276+Court+St%2C+Brooklyn%2C+NY"}}, {"type": "Feature", "geometry": {"type": "Point", "coordinates": [-73.99467, 40.68495]}, "properties": {"name": "COBBLE HILL CINEMAS", "address": "265 COURT ST", "license_detail": "Bar / Food & Beverage \u2014 Wine & Beer", "license_id": "0267-23-136469", "bev_category": "Wine & Beer", "dashboard_url": "https://cb6brooklyn.github.io/bkcb6/?addr=265+COURT+ST%2C+Brooklyn%2C+NY"}}, {"type": "Feature", "geometry": {"type": "Point", "coordinates": [-73.99945, 40.68403]}, "properties": {"name": "Mozzlab LLC", "address": "502 Henry St", "license_detail": "Bar / Food & Beverage \u2014 Wine & Beer", "license_id": "0267-26-134226", "bev_category": "Wine & Beer", "dashboard_url": "https://cb6brooklyn.github.io/bkcb6/?addr=502+Henry+St%2C+Brooklyn%2C+NY"}}, {"type": "Feature", "geometry": {"type": "Point", "coordinates": [-73.98251, 40.66579]}, "properties": {"name": "WINNER", "address": "367 7TH AVE", "license_detail": "Restaurant \u2014 Full Liquor", "license_id": "0340-22-112935", "bev_category": "Full Liquor", "dashboard_url": "https://cb6brooklyn.github.io/bkcb6/?addr=367+7TH+AVE%2C+Brooklyn%2C+NY"}}, {"type": "Feature", "geometry": {"type": "Point", "coordinates": [-73.97445, 40.67992]}, "properties": {"name": "KOTO SUSHI", "address": "263 FLATBUSH AVE", "license_detail": "Restaurant \u2014 Wine & Beer", "license_id": "0240-23-140377", "bev_category": "Wine & Beer", "dashboard_url": "https://cb6brooklyn.github.io/bkcb6/?addr=263+FLATBUSH+AVE%2C+Brooklyn%2C+NY"}}, {"type": "Feature", "geometry": {"type": "Point", "coordinates": [-73.99439, 40.68557]}, "properties": {"name": "NABILA'S", "address": "248 COURT ST", "license_detail": "Bar / Food & Beverage \u2014 Wine & Beer", "license_id": "0267-22-108434", "bev_category": "Wine & Beer", "dashboard_url": "https://cb6brooklyn.github.io/bkcb6/?addr=248+COURT+ST%2C+Brooklyn%2C+NY"}}, {"type": "Feature", "geometry": {"type": "Point", "coordinates": [-73.98251, 40.66579]}, "properties": {"name": "RUNNER UP", "address": "367 7TH AVE", "license_detail": "Restaurant \u2014 Full Liquor", "license_id": "0340-22-107594", "bev_category": "Full Liquor", "dashboard_url": "https://cb6brooklyn.github.io/bkcb6/?addr=367+7TH+AVE%2C+Brooklyn%2C+NY"}}, {"type": "Feature", "geometry": {"type": "Point", "coordinates": [-73.98268, 40.66557]}, "properties": {"name": "CASA AZUL INC", "address": "369 7TH AVE", "license_detail": "Restaurant \u2014 Full Liquor", "license_id": "0340-21-120054", "bev_category": "Full Liquor", "dashboard_url": "https://cb6brooklyn.github.io/bkcb6/?addr=369+7TH+AVE%2C+Brooklyn%2C+NY"}}, {"type": "Feature", "geometry": {"type": "Point", "coordinates": [-73.99192, 40.68457]}, "properties": {"name": "PUREPECHA MEXICAN RESTAURANT", "address": "213 SMITH ST", "license_detail": "Restaurant \u2014 Full Liquor", "license_id": "0340-22-108922", "bev_category": "Full Liquor", "dashboard_url": "https://cb6brooklyn.github.io/bkcb6/?addr=213+SMITH+ST%2C+Brooklyn%2C+NY"}}, {"type": "Feature", "geometry": {"type": "Point", "coordinates": [-73.98208, 40.67425]}, "properties": {"name": "TENDER LOVIN CHICKEN", "address": "278B 5TH AVE", "license_detail": "Restaurant \u2014 Full Liquor", "license_id": "0340-22-104532", "bev_category": "Full Liquor", "dashboard_url": "https://cb6brooklyn.github.io/bkcb6/?addr=278B+5TH+AVE%2C+Brooklyn%2C+NY"}}, {"type": "Feature", "geometry": {"type": "Point", "coordinates": [-73.99791, 40.67818]}, "properties": {"name": "BORAN BY DAO THONG", "address": "462 COURT ST", "license_detail": "Restaurant \u2014 Wine & Beer", "license_id": "0240-22-100124", "bev_category": "Wine & Beer", "dashboard_url": "https://cb6brooklyn.github.io/bkcb6/?addr=462+COURT+ST%2C+Brooklyn%2C+NY"}}, {"type": "Feature", "geometry": {"type": "Point", "coordinates": [-73.99334, 40.6877]}, "properties": {"name": "BLUE COLLAR", "address": "187 COURT ST", "license_detail": "Bar / Food & Beverage \u2014 Wine & Beer", "license_id": "0267-23-138812", "bev_category": "Wine & Beer", "dashboard_url": "https://cb6brooklyn.github.io/bkcb6/?addr=187+COURT+ST%2C+Brooklyn%2C+NY"}}, {"type": "Feature", "geometry": {"type": "Point", "coordinates": [-73.98438, 40.66352]}, "properties": {"name": "FONDA", "address": "434 7TH AVENUE", "license_detail": "Restaurant \u2014 Full Liquor", "license_id": "0340-22-104714", "bev_category": "Full Liquor", "dashboard_url": "https://cb6brooklyn.github.io/bkcb6/?addr=434+7TH+AVENUE%2C+Brooklyn%2C+NY"}}, {"type": "Feature", "geometry": {"type": "Point", "coordinates": [-73.9806, 40.66408]}, "properties": {"name": "PASTA LOUISE RESTAURANT", "address": "1114 1116 8TH AVE", "license_detail": "Restaurant \u2014 Full Liquor", "license_id": "0340-22-111572", "bev_category": "Full Liquor", "dashboard_url": "https://cb6brooklyn.github.io/bkcb6/?addr=1114+1116+8TH+AVE%2C+Brooklyn%2C+NY"}}, {"type": "Feature", "geometry": {"type": "Point", "coordinates": [-73.98475, 40.67105]}, "properties": {"name": "AUTHENTIC SZECHUAN", "address": "384 5TH AVE", "license_detail": "Restaurant \u2014 Wine & Beer", "license_id": "0240-23-139724", "bev_category": "Wine & Beer", "dashboard_url": "https://cb6brooklyn.github.io/bkcb6/?addr=384+5TH+AVE%2C+Brooklyn%2C+NY"}}, {"type": "Feature", "geometry": {"type": "Point", "coordinates": [-73.98221, 40.67408]}, "properties": {"name": "TWO BOOTS PARK SLOPE", "address": "284 5TH AVE", "license_detail": "Restaurant \u2014 Wine & Beer", "license_id": "0240-23-140818", "bev_category": "Wine & Beer", "dashboard_url": "https://cb6brooklyn.github.io/bkcb6/?addr=284+5TH+AVE%2C+Brooklyn%2C+NY"}}, {"type": "Feature", "geometry": {"type": "Point", "coordinates": [-73.99017, 40.68309]}, "properties": {"name": "GG's Fish & Chips", "address": "234 Hoyt St", "license_detail": "Restaurant \u2014 Wine & Beer", "license_id": "0240-24-139693", "bev_category": "Wine & Beer", "dashboard_url": "https://cb6brooklyn.github.io/bkcb6/?addr=234+Hoyt+St%2C+Brooklyn%2C+NY"}}, {"type": "Feature", "geometry": {"type": "Point", "coordinates": [-73.98192, 40.66649]}, "properties": {"name": "JINTANA THAI FARM HOUSE CORP", "address": "344 7TH AVE", "license_detail": "Restaurant \u2014 Wine & Beer", "license_id": "0240-22-101497", "bev_category": "Wine & Beer", "dashboard_url": "https://cb6brooklyn.github.io/bkcb6/?addr=344+7TH+AVE%2C+Brooklyn%2C+NY"}}, {"type": "Feature", "geometry": {"type": "Point", "coordinates": [-73.98065, 40.66403]}, "properties": {"name": "OTTAVA", "address": "1123 8TH AVE, SPACE A", "license_detail": "Restaurant \u2014 Full Liquor", "license_id": "0340-22-108567", "bev_category": "Full Liquor", "dashboard_url": "https://cb6brooklyn.github.io/bkcb6/?addr=1123+8TH+AVE%2C+SPACE+A%2C+Brooklyn%2C+NY"}}, {"type": "Feature", "geometry": {"type": "Point", "coordinates": [-73.99322, 40.68796]}, "properties": {"name": "CAFE CHILI", "address": "172 COURT STREET", "license_detail": "Restaurant \u2014 Wine & Beer", "license_id": "0240-23-141443", "bev_category": "Wine & Beer", "dashboard_url": "https://cb6brooklyn.github.io/bkcb6/?addr=172+COURT+STREET%2C+Brooklyn%2C+NY"}}, {"type": "Feature", "geometry": {"type": "Point", "coordinates": [-73.98072, 40.66791]}, "properties": {"name": "Mikado", "address": "293 7th Ave", "license_detail": "Restaurant \u2014 Wine & Beer", "license_id": "0240-25-116722", "bev_category": "Wine & Beer", "dashboard_url": "https://cb6brooklyn.github.io/bkcb6/?addr=293+7th+Ave%2C+Brooklyn%2C+NY"}}, {"type": "Feature", "geometry": {"type": "Point", "coordinates": [-73.97686, 40.67222]}, "properties": {"name": "UN POSTO ITALIANO", "address": "206 GARFIELD PL", "license_detail": "Restaurant \u2014 Full Liquor", "license_id": "0340-22-107249", "bev_category": "Full Liquor", "dashboard_url": "https://cb6brooklyn.github.io/bkcb6/?addr=206+GARFIELD+PL%2C+Brooklyn%2C+NY"}}, {"type": "Feature", "geometry": {"type": "Point", "coordinates": [-73.97985, 40.67726]}, "properties": {"name": "Fulton Burger Express", "address": "177 5th Ave", "license_detail": "Restaurant \u2014 Wine & Beer", "license_id": "0240-25-111377", "bev_category": "Wine & Beer", "dashboard_url": "https://cb6brooklyn.github.io/bkcb6/?addr=177+5th+Ave%2C+Brooklyn%2C+NY"}}, {"type": "Feature", "geometry": {"type": "Point", "coordinates": [-73.97154, 40.67591]}, "properties": {"name": "Kami Asian Cuisine", "address": "383 Flatbush Ave", "license_detail": "Restaurant \u2014 Wine & Beer", "license_id": "0240-24-118922", "bev_category": "Wine & Beer", "dashboard_url": "https://cb6brooklyn.github.io/bkcb6/?addr=383+Flatbush+Ave%2C+Brooklyn%2C+NY"}}, {"type": "Feature", "geometry": {"type": "Point", "coordinates": [-73.98023, 40.67668]}, "properties": {"name": "BLACK OAK ON FIFTH", "address": "200 5TH AVE", "license_detail": "Restaurant \u2014 Full Liquor", "license_id": "0340-22-112197", "bev_category": "Full Liquor", "dashboard_url": "https://cb6brooklyn.github.io/bkcb6/?addr=200+5TH+AVE%2C+Brooklyn%2C+NY"}}, {"type": "Feature", "geometry": {"type": "Point", "coordinates": [-73.97643, 40.67484]}, "properties": {"name": "SCOTTADITO", "address": "788A UNION ST", "license_detail": "Restaurant \u2014 Full Liquor", "license_id": "0340-22-103763", "bev_category": "Full Liquor", "dashboard_url": "https://cb6brooklyn.github.io/bkcb6/?addr=788A+UNION+ST%2C+Brooklyn%2C+NY"}}, {"type": "Feature", "geometry": {"type": "Point", "coordinates": [-73.99558, 40.68776]}, "properties": {"name": "LA VARA", "address": "268 CLINTON ST", "license_detail": "Restaurant \u2014 Full Liquor", "license_id": "0340-22-114705", "bev_category": "Full Liquor", "dashboard_url": "https://cb6brooklyn.github.io/bkcb6/?addr=268+CLINTON+ST%2C+Brooklyn%2C+NY"}}, {"type": "Feature", "geometry": {"type": "Point", "coordinates": [-73.97438, 40.67606]}, "properties": {"name": "RAMEN DANBO", "address": "52 7TH AVE", "license_detail": "Restaurant \u2014 Wine & Beer", "license_id": "0240-23-142016", "bev_category": "Wine & Beer", "dashboard_url": "https://cb6brooklyn.github.io/bkcb6/?addr=52+7TH+AVE%2C+Brooklyn%2C+NY"}}, {"type": "Feature", "geometry": {"type": "Point", "coordinates": [-73.98706, 40.66825]}, "properties": {"name": "PEPPINO'S", "address": "469 5TH AVE", "license_detail": "Restaurant \u2014 Wine & Beer", "license_id": "0240-23-140647", "bev_category": "Wine & Beer", "dashboard_url": "https://cb6brooklyn.github.io/bkcb6/?addr=469+5TH+AVE%2C+Brooklyn%2C+NY"}}, {"type": "Feature", "geometry": {"type": "Point", "coordinates": [-73.97792, 40.68016]}, "properties": {"name": "HOMEMADE BY MIRIAM", "address": "81 5TH AVE", "license_detail": "Restaurant \u2014 Wine & Beer", "license_id": "0240-23-140150", "bev_category": "Wine & Beer", "dashboard_url": "https://cb6brooklyn.github.io/bkcb6/?addr=81+5TH+AVE%2C+Brooklyn%2C+NY"}}, {"type": "Feature", "geometry": {"type": "Point", "coordinates": [-73.97529, 40.6747]}, "properties": {"name": "ROMA PIZZA AND RESTAURANT", "address": "85 7TH AVE", "license_detail": "Restaurant \u2014 Wine & Beer", "license_id": "0240-22-102556", "bev_category": "Wine & Beer", "dashboard_url": "https://cb6brooklyn.github.io/bkcb6/?addr=85+7TH+AVE%2C+Brooklyn%2C+NY"}}, {"type": "Feature", "geometry": {"type": "Point", "coordinates": [-73.98555, 40.66611]}, "properties": {"name": "MARIELLA", "address": "492 6TH AVE", "license_detail": "Restaurant \u2014 Wine & Beer", "license_id": "0240-22-100727", "bev_category": "Wine & Beer", "dashboard_url": "https://cb6brooklyn.github.io/bkcb6/?addr=492+6TH+AVE%2C+Brooklyn%2C+NY"}}, {"type": "Feature", "geometry": {"type": "Point", "coordinates": [-73.9794, 40.67795]}, "properties": {"name": "WUS KYU RAMEN LLC", "address": "155 5TH AVE", "license_detail": "Restaurant \u2014 Wine & Beer", "license_id": "0240-22-101352", "bev_category": "Wine & Beer", "dashboard_url": "https://cb6brooklyn.github.io/bkcb6/?addr=155+5TH+AVE%2C+Brooklyn%2C+NY"}}, {"type": "Feature", "geometry": {"type": "Point", "coordinates": [-73.97445, 40.68095]}, "properties": {"name": "COMPANION SKAKA SHAKA TIKI", "address": "64 6TH AVE", "license_detail": "Restaurant \u2014 Full Liquor", "license_id": "0340-22-113656", "bev_category": "Full Liquor", "dashboard_url": "https://cb6brooklyn.github.io/bkcb6/?addr=64+6TH+AVE%2C+Brooklyn%2C+NY"}}, {"type": "Feature", "geometry": {"type": "Point", "coordinates": [-73.9855, 40.67821]}, "properties": {"name": "Mercado Central Copa Y Cana", "address": "252 3rd Ave", "license_detail": "Bar / Food & Beverage \u2014 Wine & Beer", "license_id": "0267-24-133132", "bev_category": "Wine & Beer", "dashboard_url": "https://cb6brooklyn.github.io/bkcb6/?addr=252+3rd+Ave%2C+Brooklyn%2C+NY"}}, {"type": "Feature", "geometry": {"type": "Point", "coordinates": [-73.9824, 40.66592]}, "properties": {"name": "NEW KIKU INC", "address": "361 7TH AVE", "license_detail": "Restaurant \u2014 Wine & Beer", "license_id": "0240-23-140425", "bev_category": "Wine & Beer", "dashboard_url": "https://cb6brooklyn.github.io/bkcb6/?addr=361+7TH+AVE%2C+Brooklyn%2C+NY"}}, {"type": "Feature", "geometry": {"type": "Point", "coordinates": [-73.99201, 40.68443]}, "properties": {"name": "PORTAL LATINO RESTAURANT INC", "address": "217 SMITH ST", "license_detail": "Restaurant \u2014 Wine & Beer", "license_id": "0240-22-101747", "bev_category": "Wine & Beer", "dashboard_url": "https://cb6brooklyn.github.io/bkcb6/?addr=217+SMITH+ST%2C+Brooklyn%2C+NY"}}, {"type": "Feature", "geometry": {"type": "Point", "coordinates": [-73.99329, 40.68257]}, "properties": {"name": "THE WING BAR", "address": "275 SMITH ST", "license_detail": "Restaurant \u2014 Full Liquor", "license_id": "0340-21-118945", "bev_category": "Full Liquor", "dashboard_url": "https://cb6brooklyn.github.io/bkcb6/?addr=275+SMITH+ST%2C+Brooklyn%2C+NY"}}, {"type": "Feature", "geometry": {"type": "Point", "coordinates": [-73.99244, 40.68379]}, "properties": {"name": "PANZEROTTI BITES", "address": "235 SMITH ST", "license_detail": "Restaurant \u2014 Wine & Beer", "license_id": "0240-22-100162", "bev_category": "Wine & Beer", "dashboard_url": "https://cb6brooklyn.github.io/bkcb6/?addr=235+SMITH+ST%2C+Brooklyn%2C+NY"}}, {"type": "Feature", "geometry": {"type": "Point", "coordinates": [-73.98347, 40.67919]}, "properties": {"name": "KICK AXE THROWING LLC", "address": "622 DEGRAW ST", "license_detail": "Bar / Food & Beverage \u2014 Wine & Beer", "license_id": "0267-21-118170", "bev_category": "Wine & Beer", "dashboard_url": "https://cb6brooklyn.github.io/bkcb6/?addr=622+DEGRAW+ST%2C+Brooklyn%2C+NY"}}, {"type": "Feature", "geometry": {"type": "Point", "coordinates": [-73.97691, 40.67246]}, "properties": {"name": "SZECHUAN DELIGHT", "address": "152 7TH AVE", "license_detail": "Restaurant \u2014 Wine & Beer", "license_id": "0240-23-139744", "bev_category": "Wine & Beer", "dashboard_url": "https://cb6brooklyn.github.io/bkcb6/?addr=152+7TH+AVE%2C+Brooklyn%2C+NY"}}, {"type": "Feature", "geometry": {"type": "Point", "coordinates": [-73.99826, 40.67743]}, "properties": {"name": "FRANKIES 457 COURT ST SPUTINO", "address": "457 COURT ST", "license_detail": "Restaurant \u2014 Full Liquor", "license_id": "0340-22-103663", "bev_category": "Full Liquor", "dashboard_url": "https://cb6brooklyn.github.io/bkcb6/?addr=457+COURT+ST%2C+Brooklyn%2C+NY"}}, {"type": "Feature", "geometry": {"type": "Point", "coordinates": [-73.97503, 40.67979]}, "properties": {"name": "PURBIRD", "address": "82 6TH AVE", "license_detail": "Restaurant \u2014 Wine & Beer", "license_id": "0240-21-122610", "bev_category": "Wine & Beer", "dashboard_url": "https://cb6brooklyn.github.io/bkcb6/?addr=82+6TH+AVE%2C+Brooklyn%2C+NY"}}, {"type": "Feature", "geometry": {"type": "Point", "coordinates": [-73.97811, 40.6755]}, "properties": {"name": "HUNAN DELIGHT", "address": "752 Union St", "license_detail": "Restaurant \u2014 Wine & Beer", "license_id": "0240-24-132115", "bev_category": "Wine & Beer", "dashboard_url": "https://cb6brooklyn.github.io/bkcb6/?addr=752+Union+St%2C+Brooklyn%2C+NY"}}, {"type": "Feature", "geometry": {"type": "Point", "coordinates": [-73.9941, 40.68619]}, "properties": {"name": "GHANG THAI FOOD SERVICES LLC", "address": "229 COURT STREET", "license_detail": "Restaurant \u2014 Full Liquor", "license_id": "0340-21-119264", "bev_category": "Full Liquor", "dashboard_url": "https://cb6brooklyn.github.io/bkcb6/?addr=229+COURT+STREET%2C+Brooklyn%2C+NY"}}, {"type": "Feature", "geometry": {"type": "Point", "coordinates": [-73.99163, 40.68502]}, "properties": {"name": "Ming Mun", "address": "196 Smith St", "license_detail": "Restaurant \u2014 Wine & Beer", "license_id": "0240-26-135358", "bev_category": "Wine & Beer", "dashboard_url": "https://cb6brooklyn.github.io/bkcb6/?addr=196+Smith+St%2C+Brooklyn%2C+NY"}}, {"type": "Feature", "geometry": {"type": "Point", "coordinates": [-73.97651, 40.68275]}, "properties": {"name": "SHAKE SHACK FLATBUSH BROOKLYN LLC", "address": "170 FLATBUSH AVE", "license_detail": "Restaurant \u2014 Wine & Beer", "license_id": "0240-22-102669", "bev_category": "Wine & Beer", "dashboard_url": "https://cb6brooklyn.github.io/bkcb6/?addr=170+FLATBUSH+AVE%2C+Brooklyn%2C+NY"}}, {"type": "Feature", "geometry": {"type": "Point", "coordinates": [-73.98113, 40.67543]}, "properties": {"name": "SIMPLY GREEK", "address": "242 5TH AVE", "license_detail": "Restaurant \u2014 Full Liquor", "license_id": "0340-22-112249", "bev_category": "Full Liquor", "dashboard_url": "https://cb6brooklyn.github.io/bkcb6/?addr=242+5TH+AVE%2C+Brooklyn%2C+NY"}}, {"type": "Feature", "geometry": {"type": "Point", "coordinates": [-73.99946, 40.67495]}, "properties": {"name": "AROMI", "address": "552 COURT ST", "license_detail": "Restaurant \u2014 Full Liquor", "license_id": "0340-22-105537", "bev_category": "Full Liquor", "dashboard_url": "https://cb6brooklyn.github.io/bkcb6/?addr=552+COURT+ST%2C+Brooklyn%2C+NY"}}, {"type": "Feature", "geometry": {"type": "Point", "coordinates": [-73.9943, 40.68108]}, "properties": {"name": "GOWANUS YACHT CLUB & BAGELS BY THE PARK", "address": "323 SMITH STREET", "license_detail": "Restaurant \u2014 Wine & Beer", "license_id": "0240-23-141647", "bev_category": "Wine & Beer", "dashboard_url": "https://cb6brooklyn.github.io/bkcb6/?addr=323+SMITH+STREET%2C+Brooklyn%2C+NY"}}, {"type": "Feature", "geometry": {"type": "Point", "coordinates": [-73.99917, 40.67369]}, "properties": {"name": "OTHER HALF BREWING COMPANY, INC.", "address": "195 CENTRE ST", "license_detail": "Restaurant \u2014 Full Liquor", "license_id": "0340-21-119011", "bev_category": "Full Liquor", "dashboard_url": "https://cb6brooklyn.github.io/bkcb6/?addr=195+CENTRE+ST%2C+Brooklyn%2C+NY"}}, {"type": "Feature", "geometry": {"type": "Point", "coordinates": [-73.9832, 40.67291]}, "properties": {"name": "STONE PARK CAFE", "address": "324 5TH AVENUE", "license_detail": "Restaurant \u2014 Full Liquor", "license_id": "0340-22-106807", "bev_category": "Full Liquor", "dashboard_url": "https://cb6brooklyn.github.io/bkcb6/?addr=324+5TH+AVENUE%2C+Brooklyn%2C+NY"}}, {"type": "Feature", "geometry": {"type": "Point", "coordinates": [-73.98843, 40.67527]}, "properties": {"name": "THE ROOF AT 3RD & 3RD", "address": "214 3RD ST", "license_detail": "Restaurant \u2014 Wine & Beer", "license_id": "0240-21-122315", "bev_category": "Wine & Beer", "dashboard_url": "https://cb6brooklyn.github.io/bkcb6/?addr=214+3RD+ST%2C+Brooklyn%2C+NY"}}, {"type": "Feature", "geometry": {"type": "Point", "coordinates": [-73.99563, 40.69059]}, "properties": {"name": "LE BOUDOIR/ CHEZ MOI", "address": "135 ATLANTIC AVE", "license_detail": "Restaurant \u2014 Full Liquor", "license_id": "0340-22-104106", "bev_category": "Full Liquor", "dashboard_url": "https://cb6brooklyn.github.io/bkcb6/?addr=135+ATLANTIC+AVE%2C+Brooklyn%2C+NY"}}, {"type": "Feature", "geometry": {"type": "Point", "coordinates": [-73.97889, 40.67009]}, "properties": {"name": "BRBK 228 LLC", "address": "228 7TH AVE", "license_detail": "Bar / Food & Beverage \u2014 Wine & Beer", "license_id": "0267-23-133353", "bev_category": "Wine & Beer", "dashboard_url": "https://cb6brooklyn.github.io/bkcb6/?addr=228+7TH+AVE%2C+Brooklyn%2C+NY"}}, {"type": "Feature", "geometry": {"type": "Point", "coordinates": [-73.98613, 40.67729]}, "properties": {"name": "RUNNER & STONE", "address": "285 3RD AVE", "license_detail": "Restaurant \u2014 Full Liquor", "license_id": "0340-22-103406", "bev_category": "Full Liquor", "dashboard_url": "https://cb6brooklyn.github.io/bkcb6/?addr=285+3RD+AVE%2C+Brooklyn%2C+NY"}}, {"type": "Feature", "geometry": {"type": "Point", "coordinates": [-73.97226, 40.6769]}, "properties": {"name": "EL GRAN CASTILLO DE JAGUA RESTAURANT", "address": "355 FLATBUSH AVE", "license_detail": "Restaurant \u2014 Wine & Beer", "license_id": "0240-23-140119", "bev_category": "Wine & Beer", "dashboard_url": "https://cb6brooklyn.github.io/bkcb6/?addr=355+FLATBUSH+AVE%2C+Brooklyn%2C+NY"}}, {"type": "Feature", "geometry": {"type": "Point", "coordinates": [-73.98133, 40.66718]}, "properties": {"name": "7TH AVENUE DONUTS", "address": "324 7TH AVENUE", "license_detail": "Restaurant \u2014 Wine & Beer", "license_id": "0240-22-102350", "bev_category": "Wine & Beer", "dashboard_url": "https://cb6brooklyn.github.io/bkcb6/?addr=324+7TH+AVENUE%2C+Brooklyn%2C+NY"}}, {"type": "Feature", "geometry": {"type": "Point", "coordinates": [-73.99027, 40.67236]}, "properties": {"name": "Mighty Quinn's BBQ", "address": "433 3rd Ave", "license_detail": "Restaurant \u2014 Wine & Beer", "license_id": "0240-25-116028", "bev_category": "Wine & Beer", "dashboard_url": "https://cb6brooklyn.github.io/bkcb6/?addr=433+3rd+Ave%2C+Brooklyn%2C+NY"}}, {"type": "Feature", "geometry": {"type": "Point", "coordinates": [-73.97697, 40.68157]}, "properties": {"name": "PUNTA CANA RESTAURANT BAR", "address": "50 5TH AVE", "license_detail": "Restaurant \u2014 Full Liquor", "license_id": "0340-22-106140", "bev_category": "Full Liquor", "dashboard_url": "https://cb6brooklyn.github.io/bkcb6/?addr=50+5TH+AVE%2C+Brooklyn%2C+NY"}}, {"type": "Feature", "geometry": {"type": "Point", "coordinates": [-73.99463, 40.68058]}, "properties": {"name": "PLANTED BROOKLYN LLC", "address": "333 SMITH ST", "license_detail": "Bar / Food & Beverage \u2014 Wine & Beer", "license_id": "0267-23-138836", "bev_category": "Wine & Beer", "dashboard_url": "https://cb6brooklyn.github.io/bkcb6/?addr=333+SMITH+ST%2C+Brooklyn%2C+NY"}}, {"type": "Feature", "geometry": {"type": "Point", "coordinates": [-73.97821, 40.67553]}, "properties": {"name": "FLAMINGOBABY KITCHEN", "address": "787 UNION ST", "license_detail": "Restaurant \u2014 Full Liquor", "license_id": "0340-22-112321", "bev_category": "Full Liquor", "dashboard_url": "https://cb6brooklyn.github.io/bkcb6/?addr=787+UNION+ST%2C+Brooklyn%2C+NY"}}, {"type": "Feature", "geometry": {"type": "Point", "coordinates": [-73.9859, 40.66899]}, "properties": {"name": "EL VIEJO YAYO RESTAURANT & PIZZERIA", "address": "317 9TH ST", "license_detail": "Restaurant \u2014 Full Liquor", "license_id": "0340-22-107000", "bev_category": "Full Liquor", "dashboard_url": "https://cb6brooklyn.github.io/bkcb6/?addr=317+9TH+ST%2C+Brooklyn%2C+NY"}}, {"type": "Feature", "geometry": {"type": "Point", "coordinates": [-73.97558, 40.67427]}, "properties": {"name": "Art Collective Caf\u00c3\u00a9", "address": "97A 7th Ave", "license_detail": "Bar / Food & Beverage \u2014 Wine & Beer", "license_id": "0267-24-125646", "bev_category": "Wine & Beer", "dashboard_url": "https://cb6brooklyn.github.io/bkcb6/?addr=97A+7th+Ave%2C+Brooklyn%2C+NY"}}, {"type": "Feature", "geometry": {"type": "Point", "coordinates": [-73.97385, 40.67909]}, "properties": {"name": "Sumi Sushi", "address": "287 Flatbush Ave", "license_detail": "Restaurant \u2014 Wine & Beer", "license_id": "0240-26-132861", "bev_category": "Wine & Beer", "dashboard_url": "https://cb6brooklyn.github.io/bkcb6/?addr=287+Flatbush+Ave%2C+Brooklyn%2C+NY"}}, {"type": "Feature", "geometry": {"type": "Point", "coordinates": [-73.99169, 40.66687]}, "properties": {"name": "THE COMMON", "address": "548 4TH AVE", "license_detail": "Restaurant \u2014 Wine & Beer", "license_id": "0240-24-108676", "bev_category": "Wine & Beer", "dashboard_url": "https://cb6brooklyn.github.io/bkcb6/?addr=548+4TH+AVE%2C+Brooklyn%2C+NY"}}, {"type": "Feature", "geometry": {"type": "Point", "coordinates": [-73.99162, 40.68075]}, "properties": {"name": "BLACK MOUNTAIN WINE HOUSE", "address": "415 UNION STREET", "license_detail": "Restaurant \u2014 Wine & Beer", "license_id": "0240-23-140753", "bev_category": "Wine & Beer", "dashboard_url": "https://cb6brooklyn.github.io/bkcb6/?addr=415+UNION+STREET%2C+Brooklyn%2C+NY"}}, {"type": "Feature", "geometry": {"type": "Point", "coordinates": [-73.99817, 40.67762]}, "properties": {"name": "COURT STREET TAVERN", "address": "449 451 COURT ST", "license_detail": "Restaurant \u2014 Full Liquor", "license_id": "0340-22-107884", "bev_category": "Full Liquor", "dashboard_url": "https://cb6brooklyn.github.io/bkcb6/?addr=449+451+COURT+ST%2C+Brooklyn%2C+NY"}}, {"type": "Feature", "geometry": {"type": "Point", "coordinates": [-73.97371, 40.6789]}, "properties": {"name": "Ya Souvlakia", "address": "295 Flatbush Ave", "license_detail": "Restaurant \u2014 Wine & Beer", "license_id": "0240-24-135935", "bev_category": "Wine & Beer", "dashboard_url": "https://cb6brooklyn.github.io/bkcb6/?addr=295+Flatbush+Ave%2C+Brooklyn%2C+NY"}}, {"type": "Feature", "geometry": {"type": "Point", "coordinates": [-73.9808, 40.67588]}, "properties": {"name": "MEZCALS", "address": "223 5TH AVENUE", "license_detail": "Restaurant \u2014 Full Liquor", "license_id": "0340-22-110920", "bev_category": "Full Liquor", "dashboard_url": "https://cb6brooklyn.github.io/bkcb6/?addr=223+5TH+AVENUE%2C+Brooklyn%2C+NY"}}, {"type": "Feature", "geometry": {"type": "Point", "coordinates": [-73.97922, 40.67822]}, "properties": {"name": "WILD LIVING LLC", "address": "148 5TH AVE", "license_detail": "Restaurant \u2014 Full Liquor", "license_id": "0340-22-104331", "bev_category": "Full Liquor", "dashboard_url": "https://cb6brooklyn.github.io/bkcb6/?addr=148+5TH+AVE%2C+Brooklyn%2C+NY"}}, {"type": "Feature", "geometry": {"type": "Point", "coordinates": [-73.97949, 40.66148]}, "properties": {"name": "NITEHAWK CINEMA", "address": "188 PROSPECT PARK W", "license_detail": "Restaurant \u2014 Full Liquor", "license_id": "0340-22-113897", "bev_category": "Full Liquor", "dashboard_url": "https://cb6brooklyn.github.io/bkcb6/?addr=188+PROSPECT+PARK+W%2C+Brooklyn%2C+NY"}}, {"type": "Feature", "geometry": {"type": "Point", "coordinates": [-73.99652, 40.69021]}, "properties": {"name": "HIBINO", "address": "333 HENRY STREET", "license_detail": "Restaurant \u2014 Wine & Beer", "license_id": "0240-23-140966", "bev_category": "Wine & Beer", "dashboard_url": "https://cb6brooklyn.github.io/bkcb6/?addr=333+HENRY+STREET%2C+Brooklyn%2C+NY"}}, {"type": "Feature", "geometry": {"type": "Point", "coordinates": [-73.98202, 40.67431]}, "properties": {"name": "PETITE DUMPLING", "address": "276 5TH AVE", "license_detail": "Restaurant \u2014 Wine & Beer", "license_id": "0240-22-100569", "bev_category": "Wine & Beer", "dashboard_url": "https://cb6brooklyn.github.io/bkcb6/?addr=276+5TH+AVE%2C+Brooklyn%2C+NY"}}, {"type": "Feature", "geometry": {"type": "Point", "coordinates": [-73.97897, 40.6786]}, "properties": {"name": "MITI MITI TAPERIA", "address": "138 5TH AVE", "license_detail": "Restaurant \u2014 Full Liquor", "license_id": "0340-22-113270", "bev_category": "Full Liquor", "dashboard_url": "https://cb6brooklyn.github.io/bkcb6/?addr=138+5TH+AVE%2C+Brooklyn%2C+NY"}}, {"type": "Feature", "geometry": {"type": "Point", "coordinates": [-73.98273, 40.67728]}, "properties": {"name": "PUBLIC DISPLAY OF AFFECTION", "address": "669 UNION ST", "license_detail": "Restaurant \u2014 Full Liquor", "license_id": "0340-22-112861", "bev_category": "Full Liquor", "dashboard_url": "https://cb6brooklyn.github.io/bkcb6/?addr=669+UNION+ST%2C+Brooklyn%2C+NY"}}, {"type": "Feature", "geometry": {"type": "Point", "coordinates": [-73.97764, 40.68056]}, "properties": {"name": "MOMO RAMEN", "address": "78 5TH AVE", "license_detail": "Restaurant \u2014 Wine & Beer", "license_id": "0240-23-139843", "bev_category": "Wine & Beer", "dashboard_url": "https://cb6brooklyn.github.io/bkcb6/?addr=78+5TH+AVE%2C+Brooklyn%2C+NY"}}, {"type": "Feature", "geometry": {"type": "Point", "coordinates": [-73.99943, 40.675]}, "properties": {"name": "CREMINI'S", "address": "521 COURT ST", "license_detail": "Restaurant \u2014 Wine & Beer", "license_id": "0240-21-121667", "bev_category": "Wine & Beer", "dashboard_url": "https://cb6brooklyn.github.io/bkcb6/?addr=521+COURT+ST%2C+Brooklyn%2C+NY"}}, {"type": "Feature", "geometry": {"type": "Point", "coordinates": [-73.99504, 40.67995]}, "properties": {"name": "AVLEE", "address": "349 SMITH ST", "license_detail": "Restaurant \u2014 Wine & Beer", "license_id": "0240-21-122681", "bev_category": "Wine & Beer", "dashboard_url": "https://cb6brooklyn.github.io/bkcb6/?addr=349+SMITH+ST%2C+Brooklyn%2C+NY"}}, {"type": "Feature", "geometry": {"type": "Point", "coordinates": [-73.99578, 40.66973]}, "properties": {"name": "SRB BROOKLYN LLC", "address": "177 2ND AVE", "license_detail": "Restaurant \u2014 Full Liquor", "license_id": "0340-22-113849", "bev_category": "Full Liquor", "dashboard_url": "https://cb6brooklyn.github.io/bkcb6/?addr=177+2ND+AVE%2C+Brooklyn%2C+NY"}}, {"type": "Feature", "geometry": {"type": "Point", "coordinates": [-73.98385, 40.68068]}, "properties": {"name": "BROOKLYN MARRIOT FAIRFIELD INN & SUITES", "address": "181 3RD AVE", "license_detail": "Hotel \u2014 Full Liquor", "license_id": "0243-23-140859", "bev_category": "Full Liquor", "dashboard_url": "https://cb6brooklyn.github.io/bkcb6/?addr=181+3RD+AVE%2C+Brooklyn%2C+NY"}}, {"type": "Feature", "geometry": {"type": "Point", "coordinates": [-74.00274, 40.68491]}, "properties": {"name": "R & G GROUP INC", "address": "208 COLUMBIA ST", "license_detail": "Restaurant \u2014 Full Liquor", "license_id": "0340-22-103931", "bev_category": "Full Liquor", "dashboard_url": "https://cb6brooklyn.github.io/bkcb6/?addr=208+COLUMBIA+ST%2C+Brooklyn%2C+NY"}}, {"type": "Feature", "geometry": {"type": "Point", "coordinates": [-73.98095, 40.67567]}, "properties": {"name": "SHAKING CRAB", "address": "230 5TH AVE", "license_detail": "Restaurant \u2014 Full Liquor", "license_id": "0340-21-119691", "bev_category": "Full Liquor", "dashboard_url": "https://cb6brooklyn.github.io/bkcb6/?addr=230+5TH+AVE%2C+Brooklyn%2C+NY"}}, {"type": "Feature", "geometry": {"type": "Point", "coordinates": [-73.98643, 40.67692]}, "properties": {"name": "BABA'S PIEROGIES", "address": "295 3RD AVE", "license_detail": "Restaurant \u2014 Wine & Beer", "license_id": "0240-21-121842", "bev_category": "Wine & Beer", "dashboard_url": "https://cb6brooklyn.github.io/bkcb6/?addr=295+3RD+AVE%2C+Brooklyn%2C+NY"}}, {"type": "Feature", "geometry": {"type": "Point", "coordinates": [-73.98888, 40.66607]}, "properties": {"name": "PRINCESS PIZZA & RESTAURANT", "address": "535 5TH AVE", "license_detail": "Restaurant \u2014 Wine & Beer", "license_id": "0240-21-122027", "bev_category": "Wine & Beer", "dashboard_url": "https://cb6brooklyn.github.io/bkcb6/?addr=535+5TH+AVE%2C+Brooklyn%2C+NY"}}, {"type": "Feature", "geometry": {"type": "Point", "coordinates": [-73.99341, 40.66859]}, "properties": {"name": "LOWLANDS", "address": "543 3RD AVE", "license_detail": "Restaurant \u2014 Full Liquor", "license_id": "0340-22-104705", "bev_category": "Full Liquor", "dashboard_url": "https://cb6brooklyn.github.io/bkcb6/?addr=543+3RD+AVE%2C+Brooklyn%2C+NY"}}, {"type": "Feature", "geometry": {"type": "Point", "coordinates": [-73.97493, 40.67525]}, "properties": {"name": "BAR BASIC", "address": "71 7TH AVE", "license_detail": "Restaurant \u2014 Full Liquor", "license_id": "0340-21-116561", "bev_category": "Full Liquor", "dashboard_url": "https://cb6brooklyn.github.io/bkcb6/?addr=71+7TH+AVE%2C+Brooklyn%2C+NY"}}, {"type": "Feature", "geometry": {"type": "Point", "coordinates": [-73.98129, 40.66326]}, "properties": {"name": "PROVINI", "address": "1302 8TH AVENUE", "license_detail": "Restaurant \u2014 Wine & Beer", "license_id": "0240-23-141593", "bev_category": "Wine & Beer", "dashboard_url": "https://cb6brooklyn.github.io/bkcb6/?addr=1302+8TH+AVENUE%2C+Brooklyn%2C+NY"}}, {"type": "Feature", "geometry": {"type": "Point", "coordinates": [-73.99326, 40.68218]}, "properties": {"name": "COTTON BEAN", "address": "372 SACKETT STREET", "license_detail": "Restaurant \u2014 Wine & Beer", "license_id": "0240-23-139537", "bev_category": "Wine & Beer", "dashboard_url": "https://cb6brooklyn.github.io/bkcb6/?addr=372+SACKETT+STREET%2C+Brooklyn%2C+NY"}}, {"type": "Feature", "geometry": {"type": "Point", "coordinates": [-73.99323, 40.68216]}, "properties": {"name": "Tortelli LLC", "address": "359 Sackett St", "license_detail": "Bar / Food & Beverage \u2014 Wine & Beer", "license_id": "0267-26-137715", "bev_category": "Wine & Beer", "dashboard_url": "https://cb6brooklyn.github.io/bkcb6/?addr=359+Sackett+St%2C+Brooklyn%2C+NY"}}, {"type": "Feature", "geometry": {"type": "Point", "coordinates": [-73.98216, 40.66621]}, "properties": {"name": "Toyo Ramen Bar Inc.", "address": "349 7th Ave", "license_detail": "Restaurant \u2014 Wine & Beer", "license_id": "0240-25-127262", "bev_category": "Wine & Beer", "dashboard_url": "https://cb6brooklyn.github.io/bkcb6/?addr=349+7th+Ave%2C+Brooklyn%2C+NY"}}, {"type": "Feature", "geometry": {"type": "Point", "coordinates": [-73.99329, 40.68257]}, "properties": {"name": "CUBANA CAFE", "address": "272 SMITH ST", "license_detail": "Restaurant \u2014 Full Liquor", "license_id": "0340-22-108062", "bev_category": "Full Liquor", "dashboard_url": "https://cb6brooklyn.github.io/bkcb6/?addr=272+SMITH+ST%2C+Brooklyn%2C+NY"}}, {"type": "Feature", "geometry": {"type": "Point", "coordinates": [-73.98633, 40.67869]}, "properties": {"name": "MIRROR TEA HOUSE", "address": "575 UNION ST", "license_detail": "Bar / Food & Beverage \u2014 Wine & Beer", "license_id": "0267-21-118708", "bev_category": "Wine & Beer", "dashboard_url": "https://cb6brooklyn.github.io/bkcb6/?addr=575+UNION+ST%2C+Brooklyn%2C+NY"}}, {"type": "Feature", "geometry": {"type": "Point", "coordinates": [-73.9794, 40.67759]}, "properties": {"name": "Kiku Asian Bistro & Sake Bar", "address": "2 LINCOLN PL", "license_detail": "Restaurant \u2014 Wine & Beer", "license_id": "0240-24-118825", "bev_category": "Wine & Beer", "dashboard_url": "https://cb6brooklyn.github.io/bkcb6/?addr=2+LINCOLN+PL%2C+Brooklyn%2C+NY"}}, {"type": "Feature", "geometry": {"type": "Point", "coordinates": [-73.99863, 40.67668]}, "properties": {"name": "LE PETIT CAFE INC", "address": "502 COURT ST", "license_detail": "Restaurant \u2014 Wine & Beer", "license_id": "0240-23-141662", "bev_category": "Wine & Beer", "dashboard_url": "https://cb6brooklyn.github.io/bkcb6/?addr=502+COURT+ST%2C+Brooklyn%2C+NY"}}, {"type": "Feature", "geometry": {"type": "Point", "coordinates": [-73.98449, 40.67135]}, "properties": {"name": "MASALAWALA PS LLC", "address": "365 5TH AVE", "license_detail": "Restaurant \u2014 Full Liquor", "license_id": "0340-22-107778", "bev_category": "Full Liquor", "dashboard_url": "https://cb6brooklyn.github.io/bkcb6/?addr=365+5TH+AVE%2C+Brooklyn%2C+NY"}}, {"type": "Feature", "geometry": {"type": "Point", "coordinates": [-73.98251, 40.67373]}, "properties": {"name": "JPAN SUSHI INC", "address": "287 5TH AVE", "license_detail": "Restaurant \u2014 Wine & Beer", "license_id": "0240-23-140911", "bev_category": "Wine & Beer", "dashboard_url": "https://cb6brooklyn.github.io/bkcb6/?addr=287+5TH+AVE%2C+Brooklyn%2C+NY"}}, {"type": "Feature", "geometry": {"type": "Point", "coordinates": [-73.98293, 40.67322]}, "properties": {"name": "SIMPLE LOAF BAKEHOUSE", "address": "310 5TH AVE", "license_detail": "Restaurant \u2014 Wine & Beer", "license_id": "0240-23-139566", "bev_category": "Wine & Beer", "dashboard_url": "https://cb6brooklyn.github.io/bkcb6/?addr=310+5TH+AVE%2C+Brooklyn%2C+NY"}}, {"type": "Feature", "geometry": {"type": "Point", "coordinates": [-73.99554, 40.68784]}, "properties": {"name": "SAINT JULIVERT FISHERIE", "address": "264 CLINTON ST", "license_detail": "Restaurant \u2014 Full Liquor", "license_id": "0340-22-104413", "bev_category": "Full Liquor", "dashboard_url": "https://cb6brooklyn.github.io/bkcb6/?addr=264+CLINTON+ST%2C+Brooklyn%2C+NY"}}, {"type": "Feature", "geometry": {"type": "Point", "coordinates": [-73.97789, 40.67187]}, "properties": {"name": "Be Pasta", "address": "447 First Street", "license_detail": "Bar / Food & Beverage \u2014 Wine & Beer", "license_id": "0267-25-129362", "bev_category": "Wine & Beer", "dashboard_url": "https://cb6brooklyn.github.io/bkcb6/?addr=447+First+Street%2C+Brooklyn%2C+NY"}}, {"type": "Feature", "geometry": {"type": "Point", "coordinates": [-73.9929, 40.68862]}, "properties": {"name": "LEMONGRASS", "address": "156 COURT ST", "license_detail": "Restaurant \u2014 Full Liquor", "license_id": "0340-22-113519", "bev_category": "Full Liquor", "dashboard_url": "https://cb6brooklyn.github.io/bkcb6/?addr=156+COURT+ST%2C+Brooklyn%2C+NY"}}, {"type": "Feature", "geometry": {"type": "Point", "coordinates": [-73.98447, 40.67138]}, "properties": {"name": "MURA SUSHI INC", "address": "370 5TH AVE", "license_detail": "Restaurant \u2014 Wine & Beer", "license_id": "0240-22-100438", "bev_category": "Wine & Beer", "dashboard_url": "https://cb6brooklyn.github.io/bkcb6/?addr=370+5TH+AVE%2C+Brooklyn%2C+NY"}}, {"type": "Feature", "geometry": {"type": "Point", "coordinates": [-73.97957, 40.66137]}, "properties": {"name": "Chipotle Mexican Grill of Colorado, LLC", "address": "192 Prospect Park W", "license_detail": "Restaurant \u2014 Wine & Beer", "license_id": "0240-25-107810", "bev_category": "Wine & Beer", "dashboard_url": "https://cb6brooklyn.github.io/bkcb6/?addr=192+Prospect+Park+W%2C+Brooklyn%2C+NY"}}, {"type": "Feature", "geometry": {"type": "Point", "coordinates": [-73.98984, 40.6689]}, "properties": {"name": "OLIVIER RESTAURANT CORP", "address": "469 473 4TH AVE", "license_detail": "Restaurant \u2014 Full Liquor", "license_id": "0340-22-103094", "bev_category": "Full Liquor", "dashboard_url": "https://cb6brooklyn.github.io/bkcb6/?addr=469+473+4TH+AVE%2C+Brooklyn%2C+NY"}}, {"type": "Feature", "geometry": {"type": "Point", "coordinates": [-73.98714, 40.66816]}, "properties": {"name": "SIP & PLAY BOARDGAME CAFE", "address": "471 5TH AVE", "license_detail": "Bar / Food & Beverage \u2014 Wine & Beer", "license_id": "0267-22-107567", "bev_category": "Wine & Beer", "dashboard_url": "https://cb6brooklyn.github.io/bkcb6/?addr=471+5TH+AVE%2C+Brooklyn%2C+NY"}}, {"type": "Feature", "geometry": {"type": "Point", "coordinates": [-73.99793, 40.69121]}, "properties": {"name": "Urban Deli", "address": "75 Atlantic Ave", "license_detail": "Bar / Food & Beverage \u2014 Wine & Beer", "license_id": "0267-24-125581", "bev_category": "Wine & Beer", "dashboard_url": "https://cb6brooklyn.github.io/bkcb6/?addr=75+Atlantic+Ave%2C+Brooklyn%2C+NY"}}, {"type": "Feature", "geometry": {"type": "Point", "coordinates": [-74.0168, 40.67402]}, "properties": {"name": "FOOD BAZAAR", "address": "480 500 VAN BRUNT ST UNIT A", "license_detail": "Bar / Food & Beverage \u2014 Wine & Beer", "license_id": "0267-22-112326", "bev_category": "Wine & Beer", "dashboard_url": "https://cb6brooklyn.github.io/bkcb6/?addr=480+500+VAN+BRUNT+ST+UNIT+A%2C+Brooklyn%2C+NY"}}, {"type": "Feature", "geometry": {"type": "Point", "coordinates": [-73.99541, 40.68335]}, "properties": {"name": "GERSI", "address": "316 COURT ST", "license_detail": "Restaurant \u2014 Full Liquor", "license_id": "0340-22-112278", "bev_category": "Full Liquor", "dashboard_url": "https://cb6brooklyn.github.io/bkcb6/?addr=316+COURT+ST%2C+Brooklyn%2C+NY"}}, {"type": "Feature", "geometry": {"type": "Point", "coordinates": [-73.98185, 40.67694]}, "properties": {"name": "PALO SANTO INC", "address": "652 UNION ST", "license_detail": "Restaurant \u2014 Wine & Beer", "license_id": "0240-21-122763", "bev_category": "Wine & Beer", "dashboard_url": "https://cb6brooklyn.github.io/bkcb6/?addr=652+UNION+ST%2C+Brooklyn%2C+NY"}}, {"type": "Feature", "geometry": {"type": "Point", "coordinates": [-73.98121, 40.67531]}, "properties": {"name": "BROOKLYN DOP", "address": "237 5TH AVE", "license_detail": "Restaurant \u2014 Wine & Beer", "license_id": "0240-22-101330", "bev_category": "Wine & Beer", "dashboard_url": "https://cb6brooklyn.github.io/bkcb6/?addr=237+5TH+AVE%2C+Brooklyn%2C+NY"}}, {"type": "Feature", "geometry": {"type": "Point", "coordinates": [-73.97896, 40.67861]}, "properties": {"name": "MEDUSA GREEK TAVERNA", "address": "133 5TH AVE", "license_detail": "Restaurant \u2014 Full Liquor", "license_id": "0340-21-120248", "bev_category": "Full Liquor", "dashboard_url": "https://cb6brooklyn.github.io/bkcb6/?addr=133+5TH+AVE%2C+Brooklyn%2C+NY"}}, {"type": "Feature", "geometry": {"type": "Point", "coordinates": [-73.97798, 40.68006]}, "properties": {"name": "PIZZA TOWN INC", "address": "85 5TH AVENUE", "license_detail": "Restaurant \u2014 Wine & Beer", "license_id": "0240-23-141902", "bev_category": "Wine & Beer", "dashboard_url": "https://cb6brooklyn.github.io/bkcb6/?addr=85+5TH+AVENUE%2C+Brooklyn%2C+NY"}}, {"type": "Feature", "geometry": {"type": "Point", "coordinates": [-73.98283, 40.66539]}, "properties": {"name": "BROOKVIN", "address": "381 7TH AVE", "license_detail": "Restaurant \u2014 Full Liquor", "license_id": "0340-22-103554", "bev_category": "Full Liquor", "dashboard_url": "https://cb6brooklyn.github.io/bkcb6/?addr=381+7TH+AVE%2C+Brooklyn%2C+NY"}}, {"type": "Feature", "geometry": {"type": "Point", "coordinates": [-73.9943, 40.68577]}, "properties": {"name": "ST GABRIEL REST INC", "address": "242 COURT ST", "license_detail": "Restaurant \u2014 Full Liquor", "license_id": "0340-22-114512", "bev_category": "Full Liquor", "dashboard_url": "https://cb6brooklyn.github.io/bkcb6/?addr=242+COURT+ST%2C+Brooklyn%2C+NY"}}, {"type": "Feature", "geometry": {"type": "Point", "coordinates": [-73.98236, 40.66597]}, "properties": {"name": "PIZZA PLUS BOWLAPASTA BROS INC", "address": "359 7TH AVENUE", "license_detail": "Restaurant \u2014 Wine & Beer", "license_id": "0240-23-141892", "bev_category": "Wine & Beer", "dashboard_url": "https://cb6brooklyn.github.io/bkcb6/?addr=359+7TH+AVENUE%2C+Brooklyn%2C+NY"}}, {"type": "Feature", "geometry": {"type": "Point", "coordinates": [-74.01207, 40.67804]}, "properties": {"name": "VFW POST 5195", "address": "325 VAN BRUNT STREET", "license_detail": "Club \u2014 Wine & Beer", "license_id": "0249-23-132712", "bev_category": "Wine & Beer", "dashboard_url": "https://cb6brooklyn.github.io/bkcb6/?addr=325+VAN+BRUNT+STREET%2C+Brooklyn%2C+NY"}}, {"type": "Feature", "geometry": {"type": "Point", "coordinates": [-73.99286, 40.68316]}, "properties": {"name": "KARAZISHI BOTAN", "address": "255 SMITH ST", "license_detail": "Restaurant \u2014 Full Liquor", "license_id": "0340-22-107333", "bev_category": "Full Liquor", "dashboard_url": "https://cb6brooklyn.github.io/bkcb6/?addr=255+SMITH+ST%2C+Brooklyn%2C+NY"}}, {"type": "Feature", "geometry": {"type": "Point", "coordinates": [-73.98287, 40.66534]}, "properties": {"name": "TEN ICHI RAMEN", "address": "382 7TH AVE", "license_detail": "Restaurant \u2014 Wine & Beer", "license_id": "0240-23-163072", "bev_category": "Wine & Beer", "dashboard_url": "https://cb6brooklyn.github.io/bkcb6/?addr=382+7TH+AVE%2C+Brooklyn%2C+NY"}}, {"type": "Feature", "geometry": {"type": "Point", "coordinates": [-73.98638, 40.66512]}, "properties": {"name": "PICCOLI TRATTORIA", "address": "522 6TH AVE", "license_detail": "Restaurant \u2014 Wine & Beer", "license_id": "0240-22-100218", "bev_category": "Wine & Beer", "dashboard_url": "https://cb6brooklyn.github.io/bkcb6/?addr=522+6TH+AVE%2C+Brooklyn%2C+NY"}}, {"type": "Feature", "geometry": {"type": "Point", "coordinates": [-73.98535, 40.66635]}, "properties": {"name": "CROSTA", "address": "486 6TH AVE", "license_detail": "Restaurant \u2014 Full Liquor", "license_id": "0340-21-116498", "bev_category": "Full Liquor", "dashboard_url": "https://cb6brooklyn.github.io/bkcb6/?addr=486+6TH+AVE%2C+Brooklyn%2C+NY"}}, {"type": "Feature", "geometry": {"type": "Point", "coordinates": [-74.00216, 40.68414]}, "properties": {"name": "HOUSE OF CALZONES CORP", "address": "132 UNION ST", "license_detail": "Restaurant \u2014 Wine & Beer", "license_id": "0240-23-140302", "bev_category": "Wine & Beer", "dashboard_url": "https://cb6brooklyn.github.io/bkcb6/?addr=132+UNION+ST%2C+Brooklyn%2C+NY"}}, {"type": "Feature", "geometry": {"type": "Point", "coordinates": [-73.99791, 40.68727]}, "properties": {"name": "LIBERTADOR", "address": "404 HENRY ST", "license_detail": "Restaurant \u2014 Wine & Beer", "license_id": "0240-21-122079", "bev_category": "Wine & Beer", "dashboard_url": "https://cb6brooklyn.github.io/bkcb6/?addr=404+HENRY+ST%2C+Brooklyn%2C+NY"}}, {"type": "Feature", "geometry": {"type": "Point", "coordinates": [-73.98342, 40.67698]}, "properties": {"name": "RICE & BEANS NEW YORK LLC", "address": "234 4TH AVE", "license_detail": "Restaurant \u2014 Wine & Beer", "license_id": "0240-21-123361", "bev_category": "Wine & Beer", "dashboard_url": "https://cb6brooklyn.github.io/bkcb6/?addr=234+4TH+AVE%2C+Brooklyn%2C+NY"}}, {"type": "Feature", "geometry": {"type": "Point", "coordinates": [-73.97874, 40.67896]}, "properties": {"name": "HARLEM SHAKE", "address": "119 5TH AVE", "license_detail": "Bar / Food & Beverage \u2014 Wine & Beer", "license_id": "0267-23-128485", "bev_category": "Wine & Beer", "dashboard_url": "https://cb6brooklyn.github.io/bkcb6/?addr=119+5TH+AVE%2C+Brooklyn%2C+NY"}}, {"type": "Feature", "geometry": {"type": "Point", "coordinates": [-73.97885, 40.6662]}, "properties": {"name": "PASTA LOUISE RESTAURANT LLC", "address": "803 8TH AVE", "license_detail": "Bar / Food & Beverage \u2014 Wine & Beer", "license_id": "0267-22-112747", "bev_category": "Wine & Beer", "dashboard_url": "https://cb6brooklyn.github.io/bkcb6/?addr=803+8TH+AVE%2C+Brooklyn%2C+NY"}}, {"type": "Feature", "geometry": {"type": "Point", "coordinates": [-73.98451, 40.66336]}, "properties": {"name": "TEN JAPANESE CUISINE CORP", "address": "440 7TH AVE", "license_detail": "Restaurant \u2014 Full Liquor", "license_id": "0340-22-103183", "bev_category": "Full Liquor", "dashboard_url": "https://cb6brooklyn.github.io/bkcb6/?addr=440+7TH+AVE%2C+Brooklyn%2C+NY"}}, {"type": "Feature", "geometry": {"type": "Point", "coordinates": [-73.98017, 40.67676]}, "properties": {"name": "NAMASTE", "address": "195 5TH AVE", "license_detail": "Restaurant \u2014 Wine & Beer", "license_id": "0240-22-100954", "bev_category": "Wine & Beer", "dashboard_url": "https://cb6brooklyn.github.io/bkcb6/?addr=195+5TH+AVE%2C+Brooklyn%2C+NY"}}, {"type": "Feature", "geometry": {"type": "Point", "coordinates": [-73.98256, 40.67962]}, "properties": {"name": "INSA", "address": "326 DOUGLASS ST", "license_detail": "Restaurant \u2014 Full Liquor", "license_id": "0340-21-121203", "bev_category": "Full Liquor", "dashboard_url": "https://cb6brooklyn.github.io/bkcb6/?addr=326+DOUGLASS+ST%2C+Brooklyn%2C+NY"}}, {"type": "Feature", "geometry": {"type": "Point", "coordinates": [-73.98308, 40.67305]}, "properties": {"name": "TAVA TURKISH & MEDITERRANEAN CUISINE", "address": "318 5TH AVE", "license_detail": "Restaurant \u2014 Full Liquor", "license_id": "0340-22-108509", "bev_category": "Full Liquor", "dashboard_url": "https://cb6brooklyn.github.io/bkcb6/?addr=318+5TH+AVE%2C+Brooklyn%2C+NY"}}, {"type": "Feature", "geometry": {"type": "Point", "coordinates": [-74.00031, 40.68224]}, "properties": {"name": "KOTO SUSHI & STEAK", "address": "552 HENRY ST", "license_detail": "Restaurant \u2014 Wine & Beer", "license_id": "0240-22-100293", "bev_category": "Wine & Beer", "dashboard_url": "https://cb6brooklyn.github.io/bkcb6/?addr=552+HENRY+ST%2C+Brooklyn%2C+NY"}}, {"type": "Feature", "geometry": {"type": "Point", "coordinates": [-73.9927, 40.68905]}, "properties": {"name": "DAILY PROVISIONS", "address": "151-153 COURT ST", "license_detail": "Restaurant \u2014 Wine & Beer", "license_id": "0240-24-108881", "bev_category": "Wine & Beer", "dashboard_url": "https://cb6brooklyn.github.io/bkcb6/?addr=151-153+COURT+ST%2C+Brooklyn%2C+NY"}}, {"type": "Feature", "geometry": {"type": "Point", "coordinates": [-73.97777, 40.67144]}, "properties": {"name": "GRAND CANYON DINER CORP", "address": "179 7TH AVE", "license_detail": "Restaurant \u2014 Wine & Beer", "license_id": "0240-22-102591", "bev_category": "Wine & Beer", "dashboard_url": "https://cb6brooklyn.github.io/bkcb6/?addr=179+7TH+AVE%2C+Brooklyn%2C+NY"}}, {"type": "Feature", "geometry": {"type": "Point", "coordinates": [-74.00485, 40.68156]}, "properties": {"name": "BASS AND BOURBON LLC", "address": "113 HAMILTON AVE", "license_detail": "Restaurant \u2014 Full Liquor", "license_id": "0340-22-112876", "bev_category": "Full Liquor", "dashboard_url": "https://cb6brooklyn.github.io/bkcb6/?addr=113+HAMILTON+AVE%2C+Brooklyn%2C+NY"}}, {"type": "Feature", "geometry": {"type": "Point", "coordinates": [-73.99476, 40.68477]}, "properties": {"name": "Tera Mera", "address": "272 Court St", "license_detail": "Restaurant \u2014 Wine & Beer", "license_id": "0240-26-134106", "bev_category": "Wine & Beer", "dashboard_url": "https://cb6brooklyn.github.io/bkcb6/?addr=272+Court+St%2C+Brooklyn%2C+NY"}}, {"type": "Feature", "geometry": {"type": "Point", "coordinates": [-73.97621, 40.68196]}, "properties": {"name": "CHAM BAR/RESTAURANT", "address": "448 DEAN ST", "license_detail": "Restaurant \u2014 Full Liquor", "license_id": "0340-22-113908", "bev_category": "Full Liquor", "dashboard_url": "https://cb6brooklyn.github.io/bkcb6/?addr=448+DEAN+ST%2C+Brooklyn%2C+NY"}}, {"type": "Feature", "geometry": {"type": "Point", "coordinates": [-74.00127, 40.67115]}, "properties": {"name": "SHIPWRECKED MINIATURE GOLF", "address": "619 COURT ST", "license_detail": "Bar / Food & Beverage \u2014 Wine & Beer", "license_id": "0267-23-134077", "bev_category": "Wine & Beer", "dashboard_url": "https://cb6brooklyn.github.io/bkcb6/?addr=619+COURT+ST%2C+Brooklyn%2C+NY"}}, {"type": "Feature", "geometry": {"type": "Point", "coordinates": [-73.97495, 40.67522]}, "properties": {"name": "MR. WONTON", "address": "73 7TH AVE", "license_detail": "Restaurant \u2014 Wine & Beer", "license_id": "0240-24-132401", "bev_category": "Wine & Beer", "dashboard_url": "https://cb6brooklyn.github.io/bkcb6/?addr=73+7TH+AVE%2C+Brooklyn%2C+NY"}}, {"type": "Feature", "geometry": {"type": "Point", "coordinates": [-73.99473, 40.68482]}, "properties": {"name": "OSAKA", "address": "270 COURT ST", "license_detail": "Restaurant \u2014 Wine & Beer", "license_id": "0240-22-101525", "bev_category": "Wine & Beer", "dashboard_url": "https://cb6brooklyn.github.io/bkcb6/?addr=270+COURT+ST%2C+Brooklyn%2C+NY"}}, {"type": "Feature", "geometry": {"type": "Point", "coordinates": [-73.97752, 40.68074]}, "properties": {"name": "PIZZA SECRET", "address": "72 5TH AVE", "license_detail": "Restaurant \u2014 Full Liquor", "license_id": "0340-22-109227", "bev_category": "Full Liquor", "dashboard_url": "https://cb6brooklyn.github.io/bkcb6/?addr=72+5TH+AVE%2C+Brooklyn%2C+NY"}}, {"type": "Feature", "geometry": {"type": "Point", "coordinates": [-73.98014, 40.66465]}, "properties": {"name": "FLORA TASTE EXPERIENCE LLC", "address": "1021 8TH AVE", "license_detail": "Restaurant \u2014 Wine & Beer", "license_id": "0240-22-100229", "bev_category": "Wine & Beer", "dashboard_url": "https://cb6brooklyn.github.io/bkcb6/?addr=1021+8TH+AVE%2C+Brooklyn%2C+NY"}}, {"type": "Feature", "geometry": {"type": "Point", "coordinates": [-73.97987, 40.67723]}, "properties": {"name": "MR BAO", "address": "179 5TH AVE", "license_detail": "Restaurant \u2014 Wine & Beer", "license_id": "0240-20-100105", "bev_category": "Wine & Beer", "dashboard_url": "https://cb6brooklyn.github.io/bkcb6/?addr=179+5TH+AVE%2C+Brooklyn%2C+NY"}}, {"type": "Feature", "geometry": {"type": "Point", "coordinates": [-74.00049, 40.68187]}, "properties": {"name": "Lucali", "address": "575 Henry St", "license_detail": "Restaurant \u2014 Wine & Beer", "license_id": "0240-25-104529", "bev_category": "Wine & Beer", "dashboard_url": "https://cb6brooklyn.github.io/bkcb6/?addr=575+Henry+St%2C+Brooklyn%2C+NY"}}, {"type": "Feature", "geometry": {"type": "Point", "coordinates": [-73.99195, 40.68452]}, "properties": {"name": "CLOVER CLUB", "address": "210 SMITH ST", "license_detail": "Additional Bar \u2014 Full Liquor", "license_id": "0340-22-103251-02", "bev_category": "Full Liquor", "dashboard_url": "https://cb6brooklyn.github.io/bkcb6/?addr=210+SMITH+ST%2C+Brooklyn%2C+NY"}}, {"type": "Feature", "geometry": {"type": "Point", "coordinates": [-73.97473, 40.67555]}, "properties": {"name": "SPICE", "address": "61A 7TH AVE", "license_detail": "Restaurant \u2014 Wine & Beer", "license_id": "0240-23-140910", "bev_category": "Wine & Beer", "dashboard_url": "https://cb6brooklyn.github.io/bkcb6/?addr=61A+7TH+AVE%2C+Brooklyn%2C+NY"}}, {"type": "Feature", "geometry": {"type": "Point", "coordinates": [-73.97726, 40.68113]}, "properties": {"name": "Kimyo Omakase", "address": "55 5th Ave", "license_detail": "Bar / Food & Beverage \u2014 Wine & Beer", "license_id": "0267-24-115771", "bev_category": "Wine & Beer", "dashboard_url": "https://cb6brooklyn.github.io/bkcb6/?addr=55+5th+Ave%2C+Brooklyn%2C+NY"}}, {"type": "Feature", "geometry": {"type": "Point", "coordinates": [-73.97744, 40.67185]}, "properties": {"name": "YAMATO RESTAURANT", "address": "168 7TH AVE", "license_detail": "Restaurant \u2014 Wine & Beer", "license_id": "0240-22-101558", "bev_category": "Wine & Beer", "dashboard_url": "https://cb6brooklyn.github.io/bkcb6/?addr=168+7TH+AVE%2C+Brooklyn%2C+NY"}}, {"type": "Feature", "geometry": {"type": "Point", "coordinates": [-73.98136, 40.6668]}, "properties": {"name": "HA NOI", "address": "448 9TH ST", "license_detail": "Restaurant \u2014 Wine & Beer", "license_id": "0240-24-113700", "bev_category": "Wine & Beer", "dashboard_url": "https://cb6brooklyn.github.io/bkcb6/?addr=448+9TH+ST%2C+Brooklyn%2C+NY"}}, {"type": "Feature", "geometry": {"type": "Point", "coordinates": [-73.99235, 40.68394]}, "properties": {"name": "Bobbi's Italian Beef", "address": "228 SMITH ST", "license_detail": "Bar / Food & Beverage \u2014 Wine & Beer", "license_id": "0267-23-164917", "bev_category": "Wine & Beer", "dashboard_url": "https://cb6brooklyn.github.io/bkcb6/?addr=228+SMITH+ST%2C+Brooklyn%2C+NY"}}, {"type": "Feature", "geometry": {"type": "Point", "coordinates": [-73.99876, 40.6764]}, "properties": {"name": "6", "address": "481 Court St", "license_detail": "Restaurant \u2014 Wine & Beer", "license_id": "0240-25-104764", "bev_category": "Wine & Beer", "dashboard_url": "https://cb6brooklyn.github.io/bkcb6/?addr=481+Court+St%2C+Brooklyn%2C+NY"}}, {"type": "Feature", "geometry": {"type": "Point", "coordinates": [-73.97896, 40.67]}, "properties": {"name": "SOTO VOCE", "address": "453 4TH ST AKA 225 7TH AVE", "license_detail": "Restaurant \u2014 Full Liquor", "license_id": "0340-22-110969", "bev_category": "Full Liquor", "dashboard_url": "https://cb6brooklyn.github.io/bkcb6/?addr=453+4TH+ST+AKA+225+7TH+AVE%2C+Brooklyn%2C+NY"}}, {"type": "Feature", "geometry": {"type": "Point", "coordinates": [-73.97719, 40.68124]}, "properties": {"name": "UNCLE BARRYS", "address": "58 5TH AVE", "license_detail": "Restaurant \u2014 Full Liquor", "license_id": "0340-21-120245", "bev_category": "Full Liquor", "dashboard_url": "https://cb6brooklyn.github.io/bkcb6/?addr=58+5TH+AVE%2C+Brooklyn%2C+NY"}}, {"type": "Feature", "geometry": {"type": "Point", "coordinates": [-73.99329, 40.68994]}, "properties": {"name": "SAHADI'S IMPORTING COMPANY INC", "address": "187 191 ATLANTIC AVE", "license_detail": "Bar / Food & Beverage \u2014 Wine & Beer", "license_id": "0267-22-108325", "bev_category": "Wine & Beer", "dashboard_url": "https://cb6brooklyn.github.io/bkcb6/?addr=187+191+ATLANTIC+AVE%2C+Brooklyn%2C+NY"}}, {"type": "Feature", "geometry": {"type": "Point", "coordinates": [-73.97916, 40.66976]}, "properties": {"name": "ONE MORE CHA <RM>", "address": "236 7TH AVE", "license_detail": "Restaurant \u2014 Wine & Beer", "license_id": "0240-23-140061", "bev_category": "Wine & Beer", "dashboard_url": "https://cb6brooklyn.github.io/bkcb6/?addr=236+7TH+AVE%2C+Brooklyn%2C+NY"}}, {"type": "Feature", "geometry": {"type": "Point", "coordinates": [-73.97497, 40.68064]}, "properties": {"name": "BKLYN LARDER", "address": "228 FLATBUSH AVE", "license_detail": "Food & Beverage \u2014 Wine & Beer", "license_id": "0138-23-141764", "bev_category": "Wine & Beer", "dashboard_url": "https://cb6brooklyn.github.io/bkcb6/?addr=228+FLATBUSH+AVE%2C+Brooklyn%2C+NY"}}, {"type": "Feature", "geometry": {"type": "Point", "coordinates": [-73.99498, 40.68005]}, "properties": {"name": "EMMA'S TORCH LTD.", "address": "345 SMITH ST", "license_detail": "Restaurant \u2014 Wine & Beer", "license_id": "0240-22-102190", "bev_category": "Wine & Beer", "dashboard_url": "https://cb6brooklyn.github.io/bkcb6/?addr=345+SMITH+ST%2C+Brooklyn%2C+NY"}}, {"type": "Feature", "geometry": {"type": "Point", "coordinates": [-73.98522, 40.66866]}, "properties": {"name": "THE DRAM SHOP", "address": "339 9TH ST", "license_detail": "Restaurant \u2014 Full Liquor", "license_id": "0340-21-118335", "bev_category": "Full Liquor", "dashboard_url": "https://cb6brooklyn.github.io/bkcb6/?addr=339+9TH+ST%2C+Brooklyn%2C+NY"}}, {"type": "Feature", "geometry": {"type": "Point", "coordinates": [-73.98127, 40.67523]}, "properties": {"name": "HAENYEO CORP", "address": "239 5TH AVE", "license_detail": "Restaurant \u2014 Full Liquor", "license_id": "0340-22-109160", "bev_category": "Full Liquor", "dashboard_url": "https://cb6brooklyn.github.io/bkcb6/?addr=239+5TH+AVE%2C+Brooklyn%2C+NY"}}, {"type": "Feature", "geometry": {"type": "Point", "coordinates": [-73.99837, 40.67722]}, "properties": {"name": "FRANKS WINE BAR", "address": "465 COURT STREET", "license_detail": "Restaurant \u2014 Full Liquor", "license_id": "0340-22-103429", "bev_category": "Full Liquor", "dashboard_url": "https://cb6brooklyn.github.io/bkcb6/?addr=465+COURT+STREET%2C+Brooklyn%2C+NY"}}, {"type": "Feature", "geometry": {"type": "Point", "coordinates": [-73.97788, 40.68021]}, "properties": {"name": "MIRIAM RESTAURANT", "address": "79 5TH AVE", "license_detail": "Restaurant \u2014 Wine & Beer", "license_id": "0240-23-140915", "bev_category": "Wine & Beer", "dashboard_url": "https://cb6brooklyn.github.io/bkcb6/?addr=79+5TH+AVE%2C+Brooklyn%2C+NY"}}, {"type": "Feature", "geometry": {"type": "Point", "coordinates": [-73.97872, 40.6703]}, "properties": {"name": "BURGER VILLAGE", "address": "222 7TH AVE", "license_detail": "Restaurant \u2014 Full Liquor", "license_id": "0340-22-110051", "bev_category": "Full Liquor", "dashboard_url": "https://cb6brooklyn.github.io/bkcb6/?addr=222+7TH+AVE%2C+Brooklyn%2C+NY"}}, {"type": "Feature", "geometry": {"type": "Point", "coordinates": [-73.98487, 40.6709]}, "properties": {"name": "LUCK THAI", "address": "386 5TH AVE", "license_detail": "Restaurant \u2014 Wine & Beer", "license_id": "0240-23-142337", "bev_category": "Wine & Beer", "dashboard_url": "https://cb6brooklyn.github.io/bkcb6/?addr=386+5TH+AVE%2C+Brooklyn%2C+NY"}}, {"type": "Feature", "geometry": {"type": "Point", "coordinates": [-73.99269, 40.68341]}, "properties": {"name": "BIG TINY", "address": "244 SMITH ST", "license_detail": "Restaurant \u2014 Wine & Beer", "license_id": "0240-23-140239", "bev_category": "Wine & Beer", "dashboard_url": "https://cb6brooklyn.github.io/bkcb6/?addr=244+SMITH+ST%2C+Brooklyn%2C+NY"}}, {"type": "Feature", "geometry": {"type": "Point", "coordinates": [-74.01678, 40.67519]}, "properties": {"name": "BROOKLYN CRAB LLC", "address": "24 REED ST", "license_detail": "Restaurant \u2014 Full Liquor", "license_id": "0340-22-104167", "bev_category": "Full Liquor", "dashboard_url": "https://cb6brooklyn.github.io/bkcb6/?addr=24+REED+ST%2C+Brooklyn%2C+NY"}}, {"type": "Feature", "geometry": {"type": "Point", "coordinates": [-73.97735, 40.681]}, "properties": {"name": "CONVIVIUM OSTERIA", "address": "68 5TH AVE", "license_detail": "Restaurant \u2014 Wine & Beer", "license_id": "0240-21-123696", "bev_category": "Wine & Beer", "dashboard_url": "https://cb6brooklyn.github.io/bkcb6/?addr=68+5TH+AVE%2C+Brooklyn%2C+NY"}}, {"type": "Feature", "geometry": {"type": "Point", "coordinates": [-73.97782, 40.67138]}, "properties": {"name": "PINO'S LA FORCHETTA", "address": "181 7TH AVENUE", "license_detail": "Restaurant \u2014 Wine & Beer", "license_id": "0240-23-140876", "bev_category": "Wine & Beer", "dashboard_url": "https://cb6brooklyn.github.io/bkcb6/?addr=181+7TH+AVENUE%2C+Brooklyn%2C+NY"}}, {"type": "Feature", "geometry": {"type": "Point", "coordinates": [-73.99742, 40.69107]}, "properties": {"name": "TABLE 87", "address": "87 ATLANTIC AVE", "license_detail": "Restaurant \u2014 Full Liquor", "license_id": "0340-22-109921", "bev_category": "Full Liquor", "dashboard_url": "https://cb6brooklyn.github.io/bkcb6/?addr=87+ATLANTIC+AVE%2C+Brooklyn%2C+NY"}}, {"type": "Feature", "geometry": {"type": "Point", "coordinates": [-73.99298, 40.683]}, "properties": {"name": "BAR BETE LLC", "address": "263 SMITH ST", "license_detail": "Restaurant \u2014 Full Liquor", "license_id": "0340-21-120781", "bev_category": "Full Liquor", "dashboard_url": "https://cb6brooklyn.github.io/bkcb6/?addr=263+SMITH+ST%2C+Brooklyn%2C+NY"}}, {"type": "Feature", "geometry": {"type": "Point", "coordinates": [-73.98609, 40.67736]}, "properties": {"name": "CLARO", "address": "284 3RD AVE", "license_detail": "Restaurant \u2014 Full Liquor", "license_id": "0340-22-106350", "bev_category": "Full Liquor", "dashboard_url": "https://cb6brooklyn.github.io/bkcb6/?addr=284+3RD+AVE%2C+Brooklyn%2C+NY"}}, {"type": "Feature", "geometry": {"type": "Point", "coordinates": [-74.01069, 40.67922]}, "properties": {"name": "KEVIN'S", "address": "277A VAN BRUNT ST", "license_detail": "Restaurant \u2014 Full Liquor", "license_id": "0340-22-103609", "bev_category": "Full Liquor", "dashboard_url": "https://cb6brooklyn.github.io/bkcb6/?addr=277A+VAN+BRUNT+ST%2C+Brooklyn%2C+NY"}}, {"type": "Feature", "geometry": {"type": "Point", "coordinates": [-73.98766, 40.66814]}, "properties": {"name": "CASITA OF BK", "address": "318 11TH ST", "license_detail": "Bar / Food & Beverage \u2014 Wine & Beer", "license_id": "0267-22-113164", "bev_category": "Wine & Beer", "dashboard_url": "https://cb6brooklyn.github.io/bkcb6/?addr=318+11TH+ST%2C+Brooklyn%2C+NY"}}, {"type": "Feature", "geometry": {"type": "Point", "coordinates": [-73.98466, 40.67116]}, "properties": {"name": "Al Dente Fresh Pasta", "address": "375B 5th Ave", "license_detail": "Restaurant \u2014 Wine & Beer", "license_id": "0240-25-107941", "bev_category": "Wine & Beer", "dashboard_url": "https://cb6brooklyn.github.io/bkcb6/?addr=375B+5th+Ave%2C+Brooklyn%2C+NY"}}, {"type": "Feature", "geometry": {"type": "Point", "coordinates": [-74.00177, 40.68404]}, "properties": {"name": "Petit Crevette Inc", "address": "144 Union St", "license_detail": "Restaurant \u2014 Wine & Beer", "license_id": "0240-26-138593", "bev_category": "Wine & Beer", "dashboard_url": "https://cb6brooklyn.github.io/bkcb6/?addr=144+Union+St%2C+Brooklyn%2C+NY"}}, {"type": "Feature", "geometry": {"type": "Point", "coordinates": [-73.99472, 40.68485]}, "properties": {"name": "THE CHOCOLATE ROOM", "address": "269 COURT ST", "license_detail": "Restaurant \u2014 Wine & Beer", "license_id": "0240-21-122929", "bev_category": "Wine & Beer", "dashboard_url": "https://cb6brooklyn.github.io/bkcb6/?addr=269+COURT+ST%2C+Brooklyn%2C+NY"}}, {"type": "Feature", "geometry": {"type": "Point", "coordinates": [-73.99557, 40.67917]}, "properties": {"name": "NILI", "address": "360 SMITH ST", "license_detail": "Bar / Food & Beverage \u2014 Wine & Beer", "license_id": "0267-22-107956", "bev_category": "Wine & Beer", "dashboard_url": "https://cb6brooklyn.github.io/bkcb6/?addr=360+SMITH+ST%2C+Brooklyn%2C+NY"}}, {"type": "Feature", "geometry": {"type": "Point", "coordinates": [-73.9749, 40.67999]}, "properties": {"name": "Phobar", "address": "80 6th Ave", "license_detail": "Restaurant \u2014 Wine & Beer", "license_id": "0240-25-109845", "bev_category": "Wine & Beer", "dashboard_url": "https://cb6brooklyn.github.io/bkcb6/?addr=80+6th+Ave%2C+Brooklyn%2C+NY"}}, {"type": "Feature", "geometry": {"type": "Point", "coordinates": [-73.97965, 40.67758]}, "properties": {"name": "MAYA TAQUERIA", "address": "168 5th Ave", "license_detail": "Restaurant \u2014 Wine & Beer", "license_id": "0240-25-102827", "bev_category": "Wine & Beer", "dashboard_url": "https://cb6brooklyn.github.io/bkcb6/?addr=168+5th+Ave%2C+Brooklyn%2C+NY"}}, {"type": "Feature", "geometry": {"type": "Point", "coordinates": [-73.99325, 40.68262]}, "properties": {"name": "UNION GROUNDS", "address": "270 SMITH ST", "license_detail": "Restaurant \u2014 Full Liquor", "license_id": "0340-22-114152", "bev_category": "Full Liquor", "dashboard_url": "https://cb6brooklyn.github.io/bkcb6/?addr=270+SMITH+ST%2C+Brooklyn%2C+NY"}}, {"type": "Feature", "geometry": {"type": "Point", "coordinates": [-73.99344, 40.66855]}, "properties": {"name": "SURFISH BISTRO II INC", "address": "550 3RD AVE", "license_detail": "Restaurant \u2014 Full Liquor", "license_id": "0340-21-121027", "bev_category": "Full Liquor", "dashboard_url": "https://cb6brooklyn.github.io/bkcb6/?addr=550+3RD+AVE%2C+Brooklyn%2C+NY"}}, {"type": "Feature", "geometry": {"type": "Point", "coordinates": [-73.98416, 40.67175]}, "properties": {"name": "CAFE MARTIN", "address": "355 5TH AVE", "license_detail": "Bar / Food & Beverage \u2014 Wine & Beer", "license_id": "0267-24-106723", "bev_category": "Wine & Beer", "dashboard_url": "https://cb6brooklyn.github.io/bkcb6/?addr=355+5TH+AVE%2C+Brooklyn%2C+NY"}}, {"type": "Feature", "geometry": {"type": "Point", "coordinates": [-73.98454, 40.67638]}, "properties": {"name": "DAIGO SUSHI ROLL BAR", "address": "527 CARROL ST", "license_detail": "Bar / Food & Beverage \u2014 Wine & Beer", "license_id": "0267-22-107575", "bev_category": "Wine & Beer", "dashboard_url": "https://cb6brooklyn.github.io/bkcb6/?addr=527+CARROL+ST%2C+Brooklyn%2C+NY"}}, {"type": "Feature", "geometry": {"type": "Point", "coordinates": [-73.99336, 40.68247]}, "properties": {"name": "SOBOKU", "address": "276 SMITH ST", "license_detail": "Restaurant \u2014 Wine & Beer", "license_id": "0240-23-139626", "bev_category": "Wine & Beer", "dashboard_url": "https://cb6brooklyn.github.io/bkcb6/?addr=276+SMITH+ST%2C+Brooklyn%2C+NY"}}, {"type": "Feature", "geometry": {"type": "Point", "coordinates": [-73.99145, 40.68529]}, "properties": {"name": "SHAN", "address": "191 SMITH ST", "license_detail": "Restaurant \u2014 Full Liquor", "license_id": "0340-22-107915", "bev_category": "Full Liquor", "dashboard_url": "https://cb6brooklyn.github.io/bkcb6/?addr=191+SMITH+ST%2C+Brooklyn%2C+NY"}}, {"type": "Feature", "geometry": {"type": "Point", "coordinates": [-73.99153, 40.68516]}, "properties": {"name": "SAVELLI INC", "address": "195 SMITH ST", "license_detail": "Restaurant \u2014 Full Liquor", "license_id": "0340-22-114086", "bev_category": "Full Liquor", "dashboard_url": "https://cb6brooklyn.github.io/bkcb6/?addr=195+SMITH+ST%2C+Brooklyn%2C+NY"}}, {"type": "Feature", "geometry": {"type": "Point", "coordinates": [-73.99195, 40.68452]}, "properties": {"name": "CLOVER CLUB", "address": "210 SMITH ST", "license_detail": "Restaurant \u2014 Full Liquor", "license_id": "0340-22-103251", "bev_category": "Full Liquor", "dashboard_url": "https://cb6brooklyn.github.io/bkcb6/?addr=210+SMITH+ST%2C+Brooklyn%2C+NY"}}, {"type": "Feature", "geometry": {"type": "Point", "coordinates": [-73.97655, 40.6729]}, "properties": {"name": "N.28", "address": "137 7TH AVE", "license_detail": "Restaurant \u2014 Wine & Beer", "license_id": "0240-23-140755", "bev_category": "Wine & Beer", "dashboard_url": "https://cb6brooklyn.github.io/bkcb6/?addr=137+7TH+AVE%2C+Brooklyn%2C+NY"}}, {"type": "Feature", "geometry": {"type": "Point", "coordinates": [-73.99389, 40.6901]}, "properties": {"name": "MIKADO", "address": "177 Atlantic Ave", "license_detail": "Restaurant \u2014 Wine & Beer", "license_id": "0240-24-120621", "bev_category": "Wine & Beer", "dashboard_url": "https://cb6brooklyn.github.io/bkcb6/?addr=177+Atlantic+Ave%2C+Brooklyn%2C+NY"}}, {"type": "Feature", "geometry": {"type": "Point", "coordinates": [-73.983, 40.66518]}, "properties": {"name": "LITTLE PURITY", "address": "390 7TH AVE", "license_detail": "Restaurant \u2014 Wine & Beer", "license_id": "0240-22-102456", "bev_category": "Wine & Beer", "dashboard_url": "https://cb6brooklyn.github.io/bkcb6/?addr=390+7TH+AVE%2C+Brooklyn%2C+NY"}}, {"type": "Feature", "geometry": {"type": "Point", "coordinates": [-73.99373, 40.68194]}, "properties": {"name": "VINNYS OF CARROLL GARDENS REST & LUNCHEONETTE INC", "address": "295 SMITH ST", "license_detail": "Restaurant \u2014 Wine & Beer", "license_id": "0240-23-141806", "bev_category": "Wine & Beer", "dashboard_url": "https://cb6brooklyn.github.io/bkcb6/?addr=295+SMITH+ST%2C+Brooklyn%2C+NY"}}, {"type": "Feature", "geometry": {"type": "Point", "coordinates": [-73.99406, 40.68144]}, "properties": {"name": "BAR SAN MIGUEL", "address": "307 SMITH ST", "license_detail": "Restaurant \u2014 Full Liquor", "license_id": "0340-21-119337", "bev_category": "Full Liquor", "dashboard_url": "https://cb6brooklyn.github.io/bkcb6/?addr=307+SMITH+ST%2C+Brooklyn%2C+NY"}}, {"type": "Feature", "geometry": {"type": "Point", "coordinates": [-73.99287, 40.68868]}, "properties": {"name": "MAMAN", "address": "154 COURT ST", "license_detail": "Restaurant \u2014 Full Liquor", "license_id": "0340-22-107980", "bev_category": "Full Liquor", "dashboard_url": "https://cb6brooklyn.github.io/bkcb6/?addr=154+COURT+ST%2C+Brooklyn%2C+NY"}}, {"type": "Feature", "geometry": {"type": "Point", "coordinates": [-73.99686, 40.6842]}, "properties": {"name": "POPPY'S", "address": "243 DEGRAW ST", "license_detail": "Bar / Food & Beverage \u2014 Wine & Beer", "license_id": "0267-23-130396", "bev_category": "Wine & Beer", "dashboard_url": "https://cb6brooklyn.github.io/bkcb6/?addr=243+DEGRAW+ST%2C+Brooklyn%2C+NY"}}, {"type": "Feature", "geometry": {"type": "Point", "coordinates": [-73.98662, 40.66483]}, "properties": {"name": "ATHENA MEDITERRANEAN CUISINE", "address": "535 6TH AVE", "license_detail": "Restaurant \u2014 Wine & Beer", "license_id": "0240-23-141718", "bev_category": "Wine & Beer", "dashboard_url": "https://cb6brooklyn.github.io/bkcb6/?addr=535+6TH+AVE%2C+Brooklyn%2C+NY"}}, {"type": "Feature", "geometry": {"type": "Point", "coordinates": [-73.97283, 40.67769]}, "properties": {"name": "SUSHI LIN", "address": "335 FLATBUSH AVE", "license_detail": "Restaurant \u2014 Wine & Beer", "license_id": "0240-23-140470", "bev_category": "Wine & Beer", "dashboard_url": "https://cb6brooklyn.github.io/bkcb6/?addr=335+FLATBUSH+AVE%2C+Brooklyn%2C+NY"}}, {"type": "Feature", "geometry": {"type": "Point", "coordinates": [-73.99458, 40.68515]}, "properties": {"name": "BUDDIES BURRITO & TACO BAR INC", "address": "260 COURT STREET", "license_detail": "Restaurant \u2014 Wine & Beer", "license_id": "0240-23-141746", "bev_category": "Wine & Beer", "dashboard_url": "https://cb6brooklyn.github.io/bkcb6/?addr=260+COURT+STREET%2C+Brooklyn%2C+NY"}}, {"type": "Feature", "geometry": {"type": "Point", "coordinates": [-73.9962, 40.67798]}, "properties": {"name": "Hungry Thirsty LLC", "address": "407 Smith St", "license_detail": "Restaurant \u2014 Wine & Beer", "license_id": "0240-25-120172", "bev_category": "Wine & Beer", "dashboard_url": "https://cb6brooklyn.github.io/bkcb6/?addr=407+Smith+St%2C+Brooklyn%2C+NY"}}, {"type": "Feature", "geometry": {"type": "Point", "coordinates": [-73.9784, 40.67068]}, "properties": {"name": "SUSHI KATSUEI INC", "address": "210 7TH AVE", "license_detail": "Restaurant \u2014 Wine & Beer", "license_id": "0240-22-101070", "bev_category": "Wine & Beer", "dashboard_url": "https://cb6brooklyn.github.io/bkcb6/?addr=210+7TH+AVE%2C+Brooklyn%2C+NY"}}, {"type": "Feature", "geometry": {"type": "Point", "coordinates": [-73.98391, 40.67205]}, "properties": {"name": "TERRE PASTA E VINO", "address": "341 5TH AVE", "license_detail": "Restaurant \u2014 Wine & Beer", "license_id": "0240-23-140837", "bev_category": "Wine & Beer", "dashboard_url": "https://cb6brooklyn.github.io/bkcb6/?addr=341+5TH+AVE%2C+Brooklyn%2C+NY"}}, {"type": "Feature", "geometry": {"type": "Point", "coordinates": [-73.97739, 40.68094]}, "properties": {"name": "ISHI GROUP INC", "address": "70 5TH AVE", "license_detail": "Restaurant \u2014 Wine & Beer", "license_id": "0240-22-102034", "bev_category": "Wine & Beer", "dashboard_url": "https://cb6brooklyn.github.io/bkcb6/?addr=70+5TH+AVE%2C+Brooklyn%2C+NY"}}, {"type": "Feature", "geometry": {"type": "Point", "coordinates": [-73.97896, 40.67]}, "properties": {"name": "NOODLE LANE", "address": "230 7TH AVE", "license_detail": "Restaurant \u2014 Wine & Beer", "license_id": "0240-24-111317", "bev_category": "Wine & Beer", "dashboard_url": "https://cb6brooklyn.github.io/bkcb6/?addr=230+7TH+AVE%2C+Brooklyn%2C+NY"}}, {"type": "Feature", "geometry": {"type": "Point", "coordinates": [-73.98009, 40.67689]}, "properties": {"name": "Winner", "address": "192 5th Ave", "license_detail": "Restaurant \u2014 Wine & Beer", "license_id": "0240-25-103274", "bev_category": "Wine & Beer", "dashboard_url": "https://cb6brooklyn.github.io/bkcb6/?addr=192+5th+Ave%2C+Brooklyn%2C+NY"}}, {"type": "Feature", "geometry": {"type": "Point", "coordinates": [-73.97587, 40.68104]}, "properties": {"name": "Idashi Omakase Inc.", "address": "464 Bergen St", "license_detail": "Bar / Food & Beverage \u2014 Wine & Beer", "license_id": "0267-24-134145", "bev_category": "Wine & Beer", "dashboard_url": "https://cb6brooklyn.github.io/bkcb6/?addr=464+Bergen+St%2C+Brooklyn%2C+NY"}}, {"type": "Feature", "geometry": {"type": "Point", "coordinates": [-73.98908, 40.66584]}, "properties": {"name": "PROSPECT", "address": "545 5TH AVE", "license_detail": "Restaurant \u2014 Full Liquor", "license_id": "0340-22-106630", "bev_category": "Full Liquor", "dashboard_url": "https://cb6brooklyn.github.io/bkcb6/?addr=545+5TH+AVE%2C+Brooklyn%2C+NY"}}, {"type": "Feature", "geometry": {"type": "Point", "coordinates": [-73.99426, 40.68585]}, "properties": {"name": "SAM'S RESTAURANT", "address": "238 COURT STREET", "license_detail": "Restaurant \u2014 Full Liquor", "license_id": "0340-23-127141", "bev_category": "Full Liquor", "dashboard_url": "https://cb6brooklyn.github.io/bkcb6/?addr=238+COURT+STREET%2C+Brooklyn%2C+NY"}}, {"type": "Feature", "geometry": {"type": "Point", "coordinates": [-73.99454, 40.68524]}, "properties": {"name": "KARLOFF", "address": "254 COURT ST", "license_detail": "Restaurant \u2014 Full Liquor", "license_id": "0340-23-135103", "bev_category": "Full Liquor", "dashboard_url": "https://cb6brooklyn.github.io/bkcb6/?addr=254+COURT+ST%2C+Brooklyn%2C+NY"}}, {"type": "Feature", "geometry": {"type": "Point", "coordinates": [-73.98445, 40.67141]}, "properties": {"name": "BARREL INC,THE", "address": "363 5TH AVENUE", "license_detail": "Bar / Food & Beverage \u2014 Full Liquor", "license_id": "0370-24-112577", "bev_category": "Full Liquor", "dashboard_url": "https://cb6brooklyn.github.io/bkcb6/?addr=363+5TH+AVENUE%2C+Brooklyn%2C+NY"}}, {"type": "Feature", "geometry": {"type": "Point", "coordinates": [-73.98613, 40.6773]}, "properties": {"name": "The Bar", "address": "286 3rd Ave", "license_detail": "Bar / Food & Beverage \u2014 Full Liquor", "license_id": "0370-24-121694", "bev_category": "Full Liquor", "dashboard_url": "https://cb6brooklyn.github.io/bkcb6/?addr=286+3rd+Ave%2C+Brooklyn%2C+NY"}}, {"type": "Feature", "geometry": {"type": "Point", "coordinates": [-73.97453, 40.68003]}, "properties": {"name": "Bird Peppers LLC", "address": "259 Flatbush Ave", "license_detail": "Additional Bar \u2014 Full Liquor", "license_id": "0340-24-133870-01", "bev_category": "Full Liquor", "dashboard_url": "https://cb6brooklyn.github.io/bkcb6/?addr=259+Flatbush+Ave%2C+Brooklyn%2C+NY"}}, {"type": "Feature", "geometry": {"type": "Point", "coordinates": [-73.9833, 40.67361]}, "properties": {"name": "Muan Thai", "address": "339A 2nd St", "license_detail": "Restaurant \u2014 Full Liquor", "license_id": "0340-25-122708", "bev_category": "Full Liquor", "dashboard_url": "https://cb6brooklyn.github.io/bkcb6/?addr=339A+2nd+St%2C+Brooklyn%2C+NY"}}, {"type": "Feature", "geometry": {"type": "Point", "coordinates": [-73.99891, 40.67609]}, "properties": {"name": "TRAVEL BAR", "address": "520 COURT ST", "license_detail": "Bar / Food & Beverage \u2014 Full Liquor", "license_id": "0370-24-128909", "bev_category": "Full Liquor", "dashboard_url": "https://cb6brooklyn.github.io/bkcb6/?addr=520+COURT+ST%2C+Brooklyn%2C+NY"}}, {"type": "Feature", "geometry": {"type": "Point", "coordinates": [-74.00748, 40.68223]}, "properties": {"name": "COSMO", "address": "72 BOWNE ST", "license_detail": "Vessel \u2014 Wine & Beer", "license_id": "0361-22-131705", "bev_category": "Wine & Beer", "dashboard_url": "https://cb6brooklyn.github.io/bkcb6/?addr=72+BOWNE+ST%2C+Brooklyn%2C+NY"}}, {"type": "Feature", "geometry": {"type": "Point", "coordinates": [-73.9916, 40.67077]}, "properties": {"name": "EIGHTY SEVEN NEXT DOOR", "address": "473 3RD AVE", "license_detail": "Restaurant \u2014 Full Liquor", "license_id": "0340-23-158862", "bev_category": "Full Liquor", "dashboard_url": "https://cb6brooklyn.github.io/bkcb6/?addr=473+3RD+AVE%2C+Brooklyn%2C+NY"}}, {"type": "Feature", "geometry": {"type": "Point", "coordinates": [-73.97725, 40.68114]}, "properties": {"name": "BK9", "address": "62 5TH AVE", "license_detail": "Restaurant \u2014 Full Liquor", "license_id": "0340-23-138150", "bev_category": "Full Liquor", "dashboard_url": "https://cb6brooklyn.github.io/bkcb6/?addr=62+5TH+AVE%2C+Brooklyn%2C+NY"}}, {"type": "Feature", "geometry": {"type": "Point", "coordinates": [-73.98745, 40.66778]}, "properties": {"name": "THE MONRO PUB", "address": "481 5TH AVE", "license_detail": "Bar / Food & Beverage \u2014 Full Liquor", "license_id": "0370-24-110021", "bev_category": "Full Liquor", "dashboard_url": "https://cb6brooklyn.github.io/bkcb6/?addr=481+5TH+AVE%2C+Brooklyn%2C+NY"}}, {"type": "Feature", "geometry": {"type": "Point", "coordinates": [-73.98144, 40.67502]}, "properties": {"name": "HIGHDIVE", "address": "243 FIFTH AVENUE", "license_detail": "Bar / Food & Beverage \u2014 Full Liquor", "license_id": "0370-23-132649", "bev_category": "Full Liquor", "dashboard_url": "https://cb6brooklyn.github.io/bkcb6/?addr=243+FIFTH+AVENUE%2C+Brooklyn%2C+NY"}}, {"type": "Feature", "geometry": {"type": "Point", "coordinates": [-73.97675, 40.68137]}, "properties": {"name": "WASAN BROOKLYN", "address": "440 BERGEN ST", "license_detail": "Restaurant \u2014 Full Liquor", "license_id": "0340-23-139144", "bev_category": "Full Liquor", "dashboard_url": "https://cb6brooklyn.github.io/bkcb6/?addr=440+BERGEN+ST%2C+Brooklyn%2C+NY"}}, {"type": "Feature", "geometry": {"type": "Point", "coordinates": [-73.98228, 40.67951]}, "properties": {"name": "THREES BREWING", "address": "333 339 DOUGLAS ST", "license_detail": "Bar / Food & Beverage \u2014 Full Liquor", "license_id": "0370-24-132311", "bev_category": "Full Liquor", "dashboard_url": "https://cb6brooklyn.github.io/bkcb6/?addr=333+339+DOUGLAS+ST%2C+Brooklyn%2C+NY"}}, {"type": "Feature", "geometry": {"type": "Point", "coordinates": [-73.99796, 40.69122]}, "properties": {"name": "MONTERO BAR & GRILL INC", "address": "73 ATLANTIC AVE", "license_detail": "Bar / Food & Beverage \u2014 Full Liquor", "license_id": "0370-24-104445", "bev_category": "Full Liquor", "dashboard_url": "https://cb6brooklyn.github.io/bkcb6/?addr=73+ATLANTIC+AVE%2C+Brooklyn%2C+NY"}}, {"type": "Feature", "geometry": {"type": "Point", "coordinates": [-73.9834, 40.67834]}, "properties": {"name": "LITTLEFIELD", "address": "635 SACKETT ST", "license_detail": "Bar / Food & Beverage \u2014 Full Liquor", "license_id": "0370-23-136177", "bev_category": "Full Liquor", "dashboard_url": "https://cb6brooklyn.github.io/bkcb6/?addr=635+SACKETT+ST%2C+Brooklyn%2C+NY"}}, {"type": "Feature", "geometry": {"type": "Point", "coordinates": [-73.98126, 40.67524]}, "properties": {"name": "AL DI LA RESTAURANT", "address": "248 5TH AVE", "license_detail": "Restaurant \u2014 Full Liquor", "license_id": "0340-23-138406", "bev_category": "Full Liquor", "dashboard_url": "https://cb6brooklyn.github.io/bkcb6/?addr=248+5TH+AVE%2C+Brooklyn%2C+NY"}}, {"type": "Feature", "geometry": {"type": "Point", "coordinates": [-73.97666, 40.67276]}, "properties": {"name": "DA NONNA ROSA", "address": "140 7TH AVE", "license_detail": "Restaurant \u2014 Full Liquor", "license_id": "0340-22-115118", "bev_category": "Full Liquor", "dashboard_url": "https://cb6brooklyn.github.io/bkcb6/?addr=140+7TH+AVE%2C+Brooklyn%2C+NY"}}, {"type": "Feature", "geometry": {"type": "Point", "coordinates": [-74.01684, 40.67324]}, "properties": {"name": "ED ROGOWSKY", "address": "499 VAN BRUNT ST", "license_detail": "Vessel \u2014 Wine & Beer", "license_id": "0361-23-104084", "bev_category": "Wine & Beer", "dashboard_url": "https://cb6brooklyn.github.io/bkcb6/?addr=499+VAN+BRUNT+ST%2C+Brooklyn%2C+NY"}}, {"type": "Feature", "geometry": {"type": "Point", "coordinates": [-73.98318, 40.67293]}, "properties": {"name": "EMMY SQUARED PIZZA", "address": "315 5TH AVE", "license_detail": "Restaurant \u2014 Full Liquor", "license_id": "0340-23-159640", "bev_category": "Full Liquor", "dashboard_url": "https://cb6brooklyn.github.io/bkcb6/?addr=315+5TH+AVE%2C+Brooklyn%2C+NY"}}, {"type": "Feature", "geometry": {"type": "Point", "coordinates": [-73.97538, 40.6812]}, "properties": {"name": "TINY'S CANTINA", "address": "229 FLATBUSH AVE", "license_detail": "Restaurant \u2014 Full Liquor", "license_id": "0340-23-139415", "bev_category": "Full Liquor", "dashboard_url": "https://cb6brooklyn.github.io/bkcb6/?addr=229+FLATBUSH+AVE%2C+Brooklyn%2C+NY"}}, {"type": "Feature", "geometry": {"type": "Point", "coordinates": [-73.99289, 40.68312]}, "properties": {"name": "BARELY DISFIGURED", "address": "257 SMITH ST", "license_detail": "Bar / Food & Beverage \u2014 Full Liquor", "license_id": "0370-23-133486", "bev_category": "Full Liquor", "dashboard_url": "https://cb6brooklyn.github.io/bkcb6/?addr=257+SMITH+ST%2C+Brooklyn%2C+NY"}}, {"type": "Feature", "geometry": {"type": "Point", "coordinates": [-73.97375, 40.67895]}, "properties": {"name": "CRYSTAL THAI FOODS INC", "address": "293 FLATBUSH AVE", "license_detail": "Restaurant \u2014 Full Liquor", "license_id": "0340-23-136783", "bev_category": "Full Liquor", "dashboard_url": "https://cb6brooklyn.github.io/bkcb6/?addr=293+FLATBUSH+AVE%2C+Brooklyn%2C+NY"}}, {"type": "Feature", "geometry": {"type": "Point", "coordinates": [-73.98154, 40.6749]}, "properties": {"name": "NEGRIL BK", "address": "254 258 5TH AVE", "license_detail": "Restaurant \u2014 Full Liquor", "license_id": "0340-23-133490", "bev_category": "Full Liquor", "dashboard_url": "https://cb6brooklyn.github.io/bkcb6/?addr=254+258+5TH+AVE%2C+Brooklyn%2C+NY"}}, {"type": "Feature", "geometry": {"type": "Point", "coordinates": [-73.97617, 40.68115]}, "properties": {"name": "Inkaico Peruvian Kitchen", "address": "447 Bergen St", "license_detail": "Restaurant \u2014 Full Liquor", "license_id": "0340-25-128713", "bev_category": "Full Liquor", "dashboard_url": "https://cb6brooklyn.github.io/bkcb6/?addr=447+Bergen+St%2C+Brooklyn%2C+NY"}}, {"type": "Feature", "geometry": {"type": "Point", "coordinates": [-73.99894, 40.67604]}, "properties": {"name": "MEZCALS", "address": "522 COURT STREET", "license_detail": "Restaurant \u2014 Full Liquor", "license_id": "0340-23-127457", "bev_category": "Full Liquor", "dashboard_url": "https://cb6brooklyn.github.io/bkcb6/?addr=522+COURT+STREET%2C+Brooklyn%2C+NY"}}, {"type": "Feature", "geometry": {"type": "Point", "coordinates": [-73.98162, 40.67939]}, "properties": {"name": "THE ARMORY", "address": "149 4TH AVE", "license_detail": "Bar / Food & Beverage \u2014 Full Liquor", "license_id": "0370-24-130728", "bev_category": "Full Liquor", "dashboard_url": "https://cb6brooklyn.github.io/bkcb6/?addr=149+4TH+AVE%2C+Brooklyn%2C+NY"}}, {"type": "Feature", "geometry": {"type": "Point", "coordinates": [-73.98675, 40.67885]}, "properties": {"name": "ROYAL PALMS SHUFFLEBOARD CLUB LLC, THE", "address": "514 UNION ST", "license_detail": "Bar / Food & Beverage \u2014 Full Liquor", "license_id": "0370-22-103344", "bev_category": "Full Liquor", "dashboard_url": "https://cb6brooklyn.github.io/bkcb6/?addr=514+UNION+ST%2C+Brooklyn%2C+NY"}}, {"type": "Feature", "geometry": {"type": "Point", "coordinates": [-73.98579, 40.6778]}, "properties": {"name": "CAFE MARS", "address": "272 3RD AVE", "license_detail": "Restaurant \u2014 Full Liquor", "license_id": "0340-23-128608", "bev_category": "Full Liquor", "dashboard_url": "https://cb6brooklyn.github.io/bkcb6/?addr=272+3RD+AVE%2C+Brooklyn%2C+NY"}}, {"type": "Feature", "geometry": {"type": "Point", "coordinates": [-73.9827, 40.6735]}, "properties": {"name": "LOFI", "address": "304 5TH AVE", "license_detail": "Bar / Food & Beverage \u2014 Full Liquor", "license_id": "0370-24-118365", "bev_category": "Full Liquor", "dashboard_url": "https://cb6brooklyn.github.io/bkcb6/?addr=304+5TH+AVE%2C+Brooklyn%2C+NY"}}, {"type": "Feature", "geometry": {"type": "Point", "coordinates": [-73.97582, 40.6746]}, "properties": {"name": "BANGKOK DEGREE INC", "address": "847 UNION ST", "license_detail": "Restaurant \u2014 Full Liquor", "license_id": "0340-22-115484", "bev_category": "Full Liquor", "dashboard_url": "https://cb6brooklyn.github.io/bkcb6/?addr=847+UNION+ST%2C+Brooklyn%2C+NY"}}, {"type": "Feature", "geometry": {"type": "Point", "coordinates": [-74.01445, 40.67602]}, "properties": {"name": "The Good Fork Pub", "address": "391 393 Van Brunt St", "license_detail": "Restaurant \u2014 Full Liquor", "license_id": "0340-25-108136", "bev_category": "Full Liquor", "dashboard_url": "https://cb6brooklyn.github.io/bkcb6/?addr=391+393+Van+Brunt+St%2C+Brooklyn%2C+NY"}}, {"type": "Feature", "geometry": {"type": "Point", "coordinates": [-73.97542, 40.68126]}, "properties": {"name": "GAHM", "address": "212 FLATBUSH AVE", "license_detail": "Restaurant \u2014 Full Liquor", "license_id": "0340-23-133982", "bev_category": "Full Liquor", "dashboard_url": "https://cb6brooklyn.github.io/bkcb6/?addr=212+FLATBUSH+AVE%2C+Brooklyn%2C+NY"}}, {"type": "Feature", "geometry": {"type": "Point", "coordinates": [-73.98151, 40.67493]}, "properties": {"name": "THE COMMISSIONER TAVERN", "address": "247 5TH AVE", "license_detail": "Restaurant \u2014 Full Liquor", "license_id": "0340-23-135621", "bev_category": "Full Liquor", "dashboard_url": "https://cb6brooklyn.github.io/bkcb6/?addr=247+5TH+AVE%2C+Brooklyn%2C+NY"}}, {"type": "Feature", "geometry": {"type": "Point", "coordinates": [-73.9848, 40.66676]}, "properties": {"name": "BAR TOTO", "address": "411 11TH STREET", "license_detail": "Restaurant \u2014 Full Liquor", "license_id": "0340-23-132855", "bev_category": "Full Liquor", "dashboard_url": "https://cb6brooklyn.github.io/bkcb6/?addr=411+11TH+STREET%2C+Brooklyn%2C+NY"}}, {"type": "Feature", "geometry": {"type": "Point", "coordinates": [-73.98466, 40.67116]}, "properties": {"name": "LOGAN'S RUN", "address": "375A 5TH AVE", "license_detail": "Bar / Food & Beverage \u2014 Full Liquor", "license_id": "0370-23-164874", "bev_category": "Full Liquor", "dashboard_url": "https://cb6brooklyn.github.io/bkcb6/?addr=375A+5TH+AVE%2C+Brooklyn%2C+NY"}}, {"type": "Feature", "geometry": {"type": "Point", "coordinates": [-73.98319, 40.67732]}, "properties": {"name": "Antojitos BK1 Bar Corporation", "address": "224 4th Ave", "license_detail": "Restaurant \u2014 Full Liquor", "license_id": "0340-26-136949", "bev_category": "Full Liquor", "dashboard_url": "https://cb6brooklyn.github.io/bkcb6/?addr=224+4th+Ave%2C+Brooklyn%2C+NY"}}, {"type": "Feature", "geometry": {"type": "Point", "coordinates": [-74.01064, 40.67925]}, "properties": {"name": "Third Times's the Charm", "address": "275 Van Brunt St", "license_detail": "Restaurant \u2014 Full Liquor", "license_id": "0340-26-134036", "bev_category": "Full Liquor", "dashboard_url": "https://cb6brooklyn.github.io/bkcb6/?addr=275+Van+Brunt+St%2C+Brooklyn%2C+NY"}}, {"type": "Feature", "geometry": {"type": "Point", "coordinates": [-73.99196, 40.68452]}, "properties": {"name": "Bee's Knees Provisions", "address": "215 SMITH ST", "license_detail": "Bar / Food & Beverage \u2014 Full Liquor", "license_id": "0370-24-119911", "bev_category": "Full Liquor", "dashboard_url": "https://cb6brooklyn.github.io/bkcb6/?addr=215+SMITH+ST%2C+Brooklyn%2C+NY"}}, {"type": "Feature", "geometry": {"type": "Point", "coordinates": [-73.98372, 40.66793]}, "properties": {"name": "BARBE'S", "address": "376 9TH ST", "license_detail": "Bar / Food & Beverage \u2014 Full Liquor", "license_id": "0370-24-104416", "bev_category": "Full Liquor", "dashboard_url": "https://cb6brooklyn.github.io/bkcb6/?addr=376+9TH+ST%2C+Brooklyn%2C+NY"}}, {"type": "Feature", "geometry": {"type": "Point", "coordinates": [-73.98285, 40.67757]}, "properties": {"name": "RANA FIFTEEN", "address": "209 4TH AVE", "license_detail": "Restaurant \u2014 Full Liquor", "license_id": "0340-23-138511", "bev_category": "Full Liquor", "dashboard_url": "https://cb6brooklyn.github.io/bkcb6/?addr=209+4TH+AVE%2C+Brooklyn%2C+NY"}}, {"type": "Feature", "geometry": {"type": "Point", "coordinates": [-73.99212, 40.68428]}, "properties": {"name": "LEVANT ON SMITH", "address": "223 SMITH ST", "license_detail": "Restaurant \u2014 Full Liquor", "license_id": "0340-23-130549", "bev_category": "Full Liquor", "dashboard_url": "https://cb6brooklyn.github.io/bkcb6/?addr=223+SMITH+ST%2C+Brooklyn%2C+NY"}}, {"type": "Feature", "geometry": {"type": "Point", "coordinates": [-74.01241, 40.67776]}, "properties": {"name": "DOCKY'S OF REDHOOK", "address": "354 VAN BRUNT ST", "license_detail": "Bar / Food & Beverage \u2014 Full Liquor", "license_id": "0370-24-138887", "bev_category": "Full Liquor", "dashboard_url": "https://cb6brooklyn.github.io/bkcb6/?addr=354+VAN+BRUNT+ST%2C+Brooklyn%2C+NY"}}, {"type": "Feature", "geometry": {"type": "Point", "coordinates": [-74.00237, 40.6842]}, "properties": {"name": "CAFE SPAGHETTI", "address": "126 UNION ST", "license_detail": "Restaurant \u2014 Full Liquor", "license_id": "0340-23-127888", "bev_category": "Full Liquor", "dashboard_url": "https://cb6brooklyn.github.io/bkcb6/?addr=126+UNION+ST%2C+Brooklyn%2C+NY"}}, {"type": "Feature", "geometry": {"type": "Point", "coordinates": [-73.97166, 40.67608]}, "properties": {"name": "FAUSTO", "address": "346 348 FLATBUSH AVE", "license_detail": "Restaurant \u2014 Full Liquor", "license_id": "0340-22-115598", "bev_category": "Full Liquor", "dashboard_url": "https://cb6brooklyn.github.io/bkcb6/?addr=346+348+FLATBUSH+AVE%2C+Brooklyn%2C+NY"}}, {"type": "Feature", "geometry": {"type": "Point", "coordinates": [-73.97555, 40.68091]}, "properties": {"name": "BAR GOTO NIBAN", "address": "474 BERGEN ST", "license_detail": "Bar / Food & Beverage \u2014 Full Liquor", "license_id": "0370-23-159656", "bev_category": "Full Liquor", "dashboard_url": "https://cb6brooklyn.github.io/bkcb6/?addr=474+BERGEN+ST%2C+Brooklyn%2C+NY"}}, {"type": "Feature", "geometry": {"type": "Point", "coordinates": [-73.98488, 40.67732]}, "properties": {"name": "FINBACK BROOKLYN", "address": "545 PRESIDENT ST", "license_detail": "Bar / Food & Beverage \u2014 Full Liquor", "license_id": "0370-24-128904", "bev_category": "Full Liquor", "dashboard_url": "https://cb6brooklyn.github.io/bkcb6/?addr=545+PRESIDENT+ST%2C+Brooklyn%2C+NY"}}, {"type": "Feature", "geometry": {"type": "Point", "coordinates": [-73.97769, 40.68049]}, "properties": {"name": "Sawa", "address": "75 & 75A 5th Ave", "license_detail": "Restaurant \u2014 Full Liquor", "license_id": "0340-24-124837", "bev_category": "Full Liquor", "dashboard_url": "https://cb6brooklyn.github.io/bkcb6/?addr=75+%26+75A+5th+Ave%2C+Brooklyn%2C+NY"}}, {"type": "Feature", "geometry": {"type": "Point", "coordinates": [-73.98803, 40.66709]}, "properties": {"name": "YOUNG ETHEL'S", "address": "506 5TH AVE", "license_detail": "Bar / Food & Beverage \u2014 Full Liquor", "license_id": "0370-23-137062", "bev_category": "Full Liquor", "dashboard_url": "https://cb6brooklyn.github.io/bkcb6/?addr=506+5TH+AVE%2C+Brooklyn%2C+NY"}}, {"type": "Feature", "geometry": {"type": "Point", "coordinates": [-73.99339, 40.68242]}, "properties": {"name": "THAISM", "address": "278 SMITH ST", "license_detail": "Restaurant \u2014 Full Liquor", "license_id": "0340-23-137918", "bev_category": "Full Liquor", "dashboard_url": "https://cb6brooklyn.github.io/bkcb6/?addr=278+SMITH+ST%2C+Brooklyn%2C+NY"}}, {"type": "Feature", "geometry": {"type": "Point", "coordinates": [-73.97602, 40.67468]}, "properties": {"name": "SHAPESHIFTER LAB", "address": "837 839 UNION ST", "license_detail": "Bar / Food & Beverage \u2014 Full Liquor", "license_id": "0370-23-138924", "bev_category": "Full Liquor", "dashboard_url": "https://cb6brooklyn.github.io/bkcb6/?addr=837+839+UNION+ST%2C+Brooklyn%2C+NY"}}, {"type": "Feature", "geometry": {"type": "Point", "coordinates": [-73.98255, 40.67368]},