{"type": "FeatureCollection", "features": [{"type": "Feature", "geometry": {"type": "Point", "coordinates": [-73.99905709, 40.6809591]}, "properties": {"name": "1 Pl & Clinton St", "street": "1 Pl", "cross_street": "Clinton St"}}, {"type": "Feature", "geometry": {"type": "Point", "coordinates": [-73.979826, 40.672784]}, "properties": {"name": "1 St & 6 Ave", "street": "1 St", "cross_street": "6 Ave"}}, {"type": "Feature", "geometry": {"type": "Point", "coordinates": [-73.993612, 40.671907]}, "properties": {"name": "10 St & 2 Ave", "street": "10 St", "cross_street": "2 Ave"}}, {"type": "Feature", "geometry": {"type": "Point", "coordinates": [-73.98700053, 40.6686273]}, "properties": {"name": "10 St & 5 Ave", "street": "10 St", "cross_street": "5 Ave"}}, {"type": "Feature", "geometry": {"type": "Point", "coordinates": [-73.98199886, 40.6662078]}, "properties": {"name": "10 St & 7 Ave", "street": "10 St", "cross_street": "7 Ave"}}, {"type": "Feature", "geometry": {"type": "Point", "coordinates": [-73.9904394, 40.668603]}, "properties": {"name": "12 St & 4 Ave", "street": "12 St", "cross_street": "4 Ave"}}, {"type": "Feature", "geometry": {"type": "Point", "coordinates": [-73.98895053, 40.666287]}, "properties": {"name": "14 St & 5 Ave", "street": "14 St", "cross_street": "5 Ave"}}, {"type": "Feature", "geometry": {"type": "Point", "coordinates": [-73.98396846, 40.663779]}, "properties": {"name": "14 St & 7 Ave", "street": "14 St", "cross_street": "7 Ave"}}, {"type": "Feature", "geometry": {"type": "Point", "coordinates": [-73.99333264, 40.6685455]}, "properties": {"name": "3 Ave & 14 St", "street": "3 Ave", "cross_street": "14 St"}}, {"type": "Feature", "geometry": {"type": "Point", "coordinates": [-73.9865, 40.677027]}, "properties": {"name": "3 Ave & Carroll St", "street": "3 Ave", "cross_street": "Carroll St"}}, {"type": "Feature", "geometry": {"type": "Point", "coordinates": [-73.98775226, 40.6750705]}, "properties": {"name": "3 St & 3 Ave", "street": "3 St", "cross_street": "3 Ave"}}, {"type": "Feature", "geometry": {"type": "Point", "coordinates": [-73.97839676, 40.6703837]}, "properties": {"name": "3 St & 7 Ave", "street": "3 St", "cross_street": "7 Ave"}}, {"type": "Feature", "geometry": {"type": "Point", "coordinates": [-73.99364123, 40.6777287]}, "properties": {"name": "3 St & Hoyt St", "street": "3 St", "cross_street": "Hoyt St"}}, {"type": "Feature", "geometry": {"type": "Point", "coordinates": [-73.985649, 40.673746]}, "properties": {"name": "4 Ave & 3 St", "street": "4 Ave", "cross_street": "3 St"}}, {"type": "Feature", "geometry": {"type": "Point", "coordinates": [-73.98876585, 40.6705135]}, "properties": {"name": "4 Ave & 9 St", "street": "4 Ave", "cross_street": "9 St"}}, {"type": "Feature", "geometry": {"type": "Point", "coordinates": [-73.98352355, 40.6728155]}, "properties": {"name": "5 Ave & 3 St", "street": "5 Ave", "cross_street": "3 St"}}, {"type": "Feature", "geometry": {"type": "Point", "coordinates": [-73.98208968, 40.6704836]}, "properties": {"name": "5 St & 6 Ave", "street": "5 St", "cross_street": "6 Ave"}}, {"type": "Feature", "geometry": {"type": "Point", "coordinates": [-73.9854617, 40.6663181]}, "properties": {"name": "6 Ave & 12 St", "street": "6 Ave", "cross_street": "12 St"}}, {"type": "Feature", "geometry": {"type": "Point", "coordinates": [-73.98377641, 40.668127]}, "properties": {"name": "6 Ave & 9 St", "street": "6 Ave", "cross_street": "9 St"}}, {"type": "Feature", "geometry": {"type": "Point", "coordinates": [-73.97988067, 40.6686627]}, "properties": {"name": "6 St & 7 Ave", "street": "6 St", "cross_street": "7 Ave"}}, {"type": "Feature", "geometry": {"type": "Point", "coordinates": [-73.97324283, 40.6776147]}, "properties": {"name": "7 Ave & Park Pl", "street": "7 Ave", "cross_street": "Park Pl"}}, {"type": "Feature", "geometry": {"type": "Point", "coordinates": [-73.98983001708984, 40.67260298150126]}, "properties": {"name": "7 St & 3 Ave", "street": "7 St", "cross_street": "3 Ave"}}, {"type": "Feature", "geometry": {"type": "Point", "coordinates": [-73.98541675, 40.6704922]}, "properties": {"name": "7 St & 5 Ave", "street": "7 St", "cross_street": "5 Ave"}}, {"type": "Feature", "geometry": {"type": "Point", "coordinates": [-73.9931417101234, 40.68841885589487]}, "properties": {"name": "Amity St & Court St", "street": "Amity St", "cross_street": "Court St"}}, {"type": "Feature", "geometry": {"type": "Point", "coordinates": [-73.9999786, 40.69165183]}, "properties": {"name": "Atlantic Ave & Furman St", "street": "Atlantic Ave", "cross_street": "Furman St"}}, {"type": "Feature", "geometry": {"type": "Point", "coordinates": [-74.001328, 40.671409]}, "properties": {"name": "Bay St & Court St", "street": "Bay St", "cross_street": "Court St"}}, {"type": "Feature", "geometry": {"type": "Point", "coordinates": [-73.97567331790923, 40.680944723477296]}, "properties": {"name": "Bergen St & Flatbush Ave", "street": "Bergen St", "cross_street": "Flatbush Ave"}}, {"type": "Feature", "geometry": {"type": "Point", "coordinates": [-73.97846879, 40.6765304]}, "properties": {"name": "Berkeley Pl & 6 Ave", "street": "Berkeley Pl", "cross_street": "6 Ave"}}, {"type": "Feature", "geometry": {"type": "Point", "coordinates": [-73.97523209452629, 40.675146838709786]}, "properties": {"name": "Berkeley Pl & 7 Ave", "street": "Berkeley Pl", "cross_street": "7 Ave"}}, {"type": "Feature", "geometry": {"type": "Point", "coordinates": [-73.99440329, 40.6849894]}, "properties": {"name": "Butler St & Court St", "street": "Butler St", "cross_street": "Court St"}}, {"type": "Feature", "geometry": {"type": "Point", "coordinates": [-73.9814832, 40.6751622]}, "properties": {"name": "Carroll St & 5 Ave", "street": "Carroll St", "cross_street": "5 Ave"}}, {"type": "Feature", "geometry": {"type": "Point", "coordinates": [-73.9787282, 40.6740886]}, "properties": {"name": "Carroll St & 6 Ave", "street": "Carroll St", "cross_street": "6 Ave"}}, {"type": "Feature", "geometry": {"type": "Point", "coordinates": [-74.00348559, 40.6830456]}, "properties": {"name": "Carroll St & Columbia St", "street": "Carroll St", "cross_street": "Columbia St"}}, {"type": "Feature", "geometry": {"type": "Point", "coordinates": [-73.99475825, 40.680611]}, "properties": {"name": "Carroll St & Smith St", "street": "Carroll St", "cross_street": "Smith St"}}, {"type": "Feature", "geometry": {"type": "Point", "coordinates": [-74.00014502, 40.6783563]}, "properties": {"name": "Clinton St & 4 Place", "street": "Clinton St", "cross_street": "4 Place"}}, {"type": "Feature", "geometry": {"type": "Point", "coordinates": [-74.00194698, 40.67434]}, "properties": {"name": "Clinton St & Centre St", "street": "Clinton St", "cross_street": "Centre St"}}, {"type": "Feature", "geometry": {"type": "Point", "coordinates": [-73.99785267, 40.6831164]}, "properties": {"name": "Clinton St & Union St", "street": "Clinton St", "cross_street": "Union St"}}, {"type": "Feature", "geometry": {"type": "Point", "coordinates": [-74.015665, 40.677236]}, "properties": {"name": "Coffey St & Conover St", "street": "Coffey St", "cross_street": "Conover St"}}, {"type": "Feature", "geometry": {"type": "Point", "coordinates": [-74.0170168876648, 40.67818387977647]}, "properties": {"name": "Coffey St & Ferris St", "street": "Coffey St", "cross_street": "Ferris St"}}, {"type": "Feature", "geometry": {"type": "Point", "coordinates": [-74.00242364, 40.6859296]}, "properties": {"name": "Columbia St & Degraw St", "street": "Columbia St", "cross_street": "Degraw St"}}, {"type": "Feature", "geometry": {"type": "Point", "coordinates": [-74.0016256, 40.68763155]}, "properties": {"name": "Columbia St & Kane St", "street": "Columbia St", "cross_street": "Kane St"}}, {"type": "Feature", "geometry": {"type": "Point", "coordinates": [-74.0075572, 40.6747055]}, "properties": {"name": "Columbia St & Lorraine St", "street": "Columbia St", "cross_street": "Lorraine St"}}, {"type": "Feature", "geometry": {"type": "Point", "coordinates": [-74.00647134, 40.6769993]}, "properties": {"name": "Columbia St & W 9 St", "street": "Columbia St", "cross_street": "W 9 St"}}, {"type": "Feature", "geometry": {"type": "Point", "coordinates": [-74.00860912, 40.6812117]}, "properties": {"name": "Commerce St & Van Brunt St", "street": "Commerce St", "cross_street": "Van Brunt St"}}, {"type": "Feature", "geometry": {"type": "Point", "coordinates": [-73.99545192718506, 40.68825516598005]}, "properties": {"name": "Congress St & Clinton St", "street": "Congress St", "cross_street": "Clinton St"}}, {"type": "Feature", "geometry": {"type": "Point", "coordinates": [-73.9995126, 40.6893952]}, "properties": {"name": "Congress St & Hicks St", "street": "Congress St", "cross_street": "Hicks St"}}, {"type": "Feature", "geometry": {"type": "Point", "coordinates": [-73.99894942833194, 40.67595768953126]}, "properties": {"name": "Court St & Huntington St", "street": "Court St", "cross_street": "Huntington St"}}, {"type": "Feature", "geometry": {"type": "Point", "coordinates": [-73.9847, 40.67977]}, "properties": {"name": "Degraw St & 3 Ave", "street": "Degraw St", "cross_street": "3 Ave"}}, {"type": "Feature", "geometry": {"type": "Point", "coordinates": [-73.99079024791718, 40.681990442707026]}, "properties": {"name": "Degraw St & Hoyt St", "street": "Degraw St", "cross_street": "Hoyt St"}}, {"type": "Feature", "geometry": {"type": "Point", "coordinates": [-73.99318208, 40.6829151]}, "properties": {"name": "Degraw St & Smith St", "street": "Degraw St", "cross_street": "Smith St"}}, {"type": "Feature", "geometry": {"type": "Point", "coordinates": [-73.98432695, 40.6802133]}, "properties": {"name": "Douglass St & 3 Ave", "street": "Douglass St", "cross_street": "3 Ave"}}, {"type": "Feature", "geometry": {"type": "Point", "coordinates": [-73.98154004, 40.6792788]}, "properties": {"name": "Douglass St & 4 Ave", "street": "Douglass St", "cross_street": "4 Ave"}}, {"type": "Feature", "geometry": {"type": "Point", "coordinates": [-74.01048018571481, 40.67487503856169]}, "properties": {"name": "Dwight St & Dikeman St", "street": "Dwight St", "cross_street": "Dikeman St"}}, {"type": "Feature", "geometry": {"type": "Point", "coordinates": [-74.01195555925369, 40.67363551341504]}, "properties": {"name": "Dwight St & Van Dyke St", "street": "Dwight St", "cross_street": "Van Dyke St"}}, {"type": "Feature", "geometry": {"type": "Point", "coordinates": [-73.97484126, 40.6711978]}, "properties": {"name": "Garfield Pl & 8 Ave", "street": "Garfield Pl", "cross_street": "8 Ave"}}, {"type": "Feature", "geometry": {"type": "Point", "coordinates": [-74.00494695, 40.6725058]}, "properties": {"name": "Henry St & Bay St", "street": "Henry St", "cross_street": "Bay St"}}, {"type": "Feature", "geometry": {"type": "Point", "coordinates": [-73.99917254, 40.6847514]}, "properties": {"name": "Henry St & Degraw St", "street": "Henry St", "cross_street": "Degraw St"}}, {"type": "Feature", "geometry": {"type": "Point", "coordinates": [-74.00324957, 40.6763744]}, "properties": {"name": "Henry St & W 9 St", "street": "Henry St", "cross_street": "W 9 St"}}, {"type": "Feature", "geometry": {"type": "Point", "coordinates": [-73.98901629, 40.6843549]}, "properties": {"name": "Hoyt St & Warren St", "street": "Hoyt St", "cross_street": "Warren St"}}, {"type": "Feature", "geometry": {"type": "Point", "coordinates": [-73.99645295, 40.6861758]}, "properties": {"name": "Kane St & Clinton St", "street": "Kane St", "cross_street": "Clinton St"}}, {"type": "Feature", "geometry": {"type": "Point", "coordinates": [-74.0094613, 40.6777748]}, "properties": {"name": "Pioneer St & Richards St", "street": "Pioneer St", "cross_street": "Richards St"}}, {"type": "Feature", "geometry": {"type": "Point", "coordinates": [-74.011169, 40.679043]}, "properties": {"name": "Pioneer St & Van Brunt St", "street": "Pioneer St", "cross_street": "Van Brunt St"}}, {"type": "Feature", "geometry": {"type": "Point", "coordinates": [-73.983262, 40.676757]}, "properties": {"name": "President St & 4 Ave", "street": "President St", "cross_street": "4 Ave"}}, {"type": "Feature", "geometry": {"type": "Point", "coordinates": [-73.99990419, 40.6828003]}, "properties": {"name": "President St & Henry St", "street": "President St", "cross_street": "Henry St"}}, {"type": "Feature", "geometry": {"type": "Point", "coordinates": [-73.991753, 40.680057]}, "properties": {"name": "President St & Hoyt St", "street": "President St", "cross_street": "Hoyt St"}}, {"type": "Feature", "geometry": {"type": "Point", "coordinates": [-73.97519523, 40.6793307]}, "properties": {"name": "Prospect Pl & 6 Ave", "street": "Prospect Pl", "cross_street": "6 Ave"}}, {"type": "Feature", "geometry": {"type": "Point", "coordinates": [-74.00785041, 40.6794327]}, "properties": {"name": "Richards St & Delavan St", "street": "Richards St", "cross_street": "Delavan St"}}, {"type": "Feature", "geometry": {"type": "Point", "coordinates": [-74.0087952464819, 40.67267243410948]}, "properties": {"name": "Sigourney St & Columbia St", "street": "Sigourney St", "cross_street": "Columbia St"}}, {"type": "Feature", "geometry": {"type": "Point", "coordinates": [-73.99599099, 40.6787242]}, "properties": {"name": "Smith St & 3 St", "street": "Smith St", "cross_street": "3 St"}}, {"type": "Feature", "geometry": {"type": "Point", "coordinates": [-73.99785768, 40.6746957]}, "properties": {"name": "Smith St & 9 St", "street": "Smith St", "cross_street": "9 St"}}, {"type": "Feature", "geometry": {"type": "Point", "coordinates": [-73.97855266928671, 40.678970070475735]}, "properties": {"name": "Sterling Pl & 5 Ave", "street": "Sterling Pl", "cross_street": "5 Ave"}}, {"type": "Feature", "geometry": {"type": "Point", "coordinates": [-73.98282002, 40.6772744]}, "properties": {"name": "Union St & 4 Ave", "street": "Union St", "cross_street": "4 Ave"}}, {"type": "Feature", "geometry": {"type": "Point", "coordinates": [-74.01472628116608, 40.6758329439129]}, "properties": {"name": "Van Brunt St & Van Dyke St", "street": "Van Brunt St", "cross_street": "Van Dyke St"}}, {"type": "Feature", "geometry": {"type": "Point", "coordinates": [-74.01275056, 40.6773429]}, "properties": {"name": "Van Brunt St & Wolcott St", "street": "Van Brunt St", "cross_street": "Wolcott St"}}]}