{"type": "FeatureCollection", "features": [{"type": "Feature", "properties": {"stop_name": "Atlantic Av-Barclays Ctr", "daytime_routes": "B D N Q R 2 3 4 5", "ada": "0"}, "geometry": {"type": "Point", "coordinates": [-73.978769, 40.683666]}}, {"type": "Feature", "properties": {"stop_name": "Bergen St", "daytime_routes": "2 3", "ada": "0"}, "geometry": {"type": "Point", "coordinates": [-73.988491, 40.686327]}}, {"type": "Feature", "properties": {"stop_name": "Bergen St", "daytime_routes": "F G", "ada": "0"}, "geometry": {"type": "Point", "coordinates": [-73.990064, 40.686145]}}, {"type": "Feature", "properties": {"stop_name": "Carroll St", "daytime_routes": "F G", "ada": "0"}, "geometry": {"type": "Point", "coordinates": [-73.995048, 40.680303]}}, {"type": "Feature", "properties": {"stop_name": "Smith-9 Sts", "daytime_routes": "F G", "ada": "0"}, "geometry": {"type": "Point", "coordinates": [-73.995959, 40.67358]}}, {"type": "Feature", "properties": {"stop_name": "4 Av-9 St", "daytime_routes": "F G", "ada": "0"}, "geometry": {"type": "Point", "coordinates": [-73.989779, 40.670272]}}, {"type": "Feature", "properties": {"stop_name": "4 Av-9 St", "daytime_routes": "R", "ada": "0"}, "geometry": {"type": "Point", "coordinates": [-73.988302, 40.670847]}}, {"type": "Feature", "properties": {"stop_name": "Union St", "daytime_routes": "R", "ada": "0"}, "geometry": {"type": "Point", "coordinates": [-73.98311, 40.677316]}}, {"type": "Feature", "properties": {"stop_name": "7 Av", "daytime_routes": "F G", "ada": "0"}, "geometry": {"type": "Point", "coordinates": [-73.980305, 40.666271]}}, {"type": "Feature", "properties": {"stop_name": "7 Av", "daytime_routes": "B Q", "ada": "0"}, "geometry": {"type": "Point", "coordinates": [-73.972367, 40.67705]}}, {"type": "Feature", "properties": {"stop_name": "Grand Army Plaza", "daytime_routes": "2 3", "ada": "0"}, "geometry": {"type": "Point", "coordinates": [-73.971046, 40.675807]}}, {"type": "Feature", "properties": {"stop_name": "Grand Army Plaza", "daytime_routes": "B Q", "ada": "0"}, "geometry": {"type": "Point", "coordinates": [-73.970525, 40.674222]}}, {"type": "Feature", "properties": {"stop_name": "Eastern Pkwy-Brooklyn Museum", "daytime_routes": "2 3", "ada": "0"}, "geometry": {"type": "Point", "coordinates": [-73.964399, 40.671987]}}, {"type": "Feature", "properties": {"stop_name": "Park Slope-9 St", "daytime_routes": "F G", "ada": "0"}, "geometry": {"type": "Point", "coordinates": [-73.979678, 40.662717]}}, {"type": "Feature", "properties": {"stop_name": "15 St-Prospect Park", "daytime_routes": "F G", "ada": "0"}, "geometry": {"type": "Point", "coordinates": [-73.979493, 40.660365]}}, {"type": "Feature", "properties": {"stop_name": "Prospect Park", "daytime_routes": "B Q S", "ada": "0"}, "geometry": {"type": "Point", "coordinates": [-73.961639, 40.661614]}}, {"type": "Feature", "properties": {"stop_name": "Fort Hamilton Pkwy", "daytime_routes": "F G", "ada": "0"}, "geometry": {"type": "Point", "coordinates": [-73.975933, 40.650782]}}, {"type": "Feature", "properties": {"stop_name": "Church Av", "daytime_routes": "B Q", "ada": "0"}, "geometry": {"type": "Point", "coordinates": [-73.962326, 40.650876]}}, {"type": "Feature", "properties": {"stop_name": "Church Av", "daytime_routes": "F G", "ada": "0"}, "geometry": {"type": "Point", "coordinates": [-73.979678, 40.644508]}}, {"type": "Feature", "properties": {"stop_name": "Ditmas Av", "daytime_routes": "F G", "ada": "0"}, "geometry": {"type": "Point", "coordinates": [-73.978661, 40.637448]}}, {"type": "Feature", "properties": {"stop_name": "18 Av", "daytime_routes": "F G", "ada": "0"}, "geometry": {"type": "Point", "coordinates": [-73.976971, 40.629447]}}, {"type": "Feature", "properties": {"stop_name": "Avenue I", "daytime_routes": "F G", "ada": "0"}, "geometry": {"type": "Point", "coordinates": [-73.976369, 40.623098]}}, {"type": "Feature", "properties": {"stop_name": "Bay Pkwy", "daytime_routes": "F G", "ada": "0"}, "geometry": {"type": "Point", "coordinates": [-73.975878, 40.616622]}}, {"type": "Feature", "properties": {"stop_name": "Avenue N", "daytime_routes": "F G", "ada": "0"}, "geometry": {"type": "Point", "coordinates": [-73.975192, 40.610314]}}, {"type": "Feature", "properties": {"stop_name": "Avenue P", "daytime_routes": "F G", "ada": "0"}, "geometry": {"type": "Point", "coordinates": [-73.974161, 40.603987]}}, {"type": "Feature", "properties": {"stop_name": "Kings Hwy", "daytime_routes": "F G", "ada": "0"}, "geometry": {"type": "Point", "coordinates": [-73.972367, 40.597373]}}, {"type": "Feature", "properties": {"stop_name": "Avenue U", "daytime_routes": "F G", "ada": "0"}, "geometry": {"type": "Point", "coordinates": [-73.973347, 40.589935]}}, {"type": "Feature", "properties": {"stop_name": "Avenue X", "daytime_routes": "F G", "ada": "0"}, "geometry": {"type": "Point", "coordinates": [-73.972313, 40.583529]}}, {"type": "Feature", "properties": {"stop_name": "Neptune Av", "daytime_routes": "F G", "ada": "0"}, "geometry": {"type": "Point", "coordinates": [-73.974983, 40.576112]}}, {"type": "Feature", "properties": {"stop_name": "W 8 St-NY Aquarium", "daytime_routes": "F Q", "ada": "0"}, "geometry": {"type": "Point", "coordinates": [-73.975986, 40.576127]}}, {"type": "Feature", "properties": {"stop_name": "Coney Island-Stillwell Av", "daytime_routes": "B D F N Q", "ada": "0"}, "geometry": {"type": "Point", "coordinates": [-73.981233, 40.577621]}}, {"type": "Feature", "properties": {"stop_name": "Jay St-MetroTech", "daytime_routes": "A C F R", "ada": "0"}, "geometry": {"type": "Point", "coordinates": [-73.987342, 40.692338]}}, {"type": "Feature", "properties": {"stop_name": "Hoyt-Schermerhorn Sts", "daytime_routes": "A C G", "ada": "0"}, "geometry": {"type": "Point", "coordinates": [-73.985001, 40.688484]}}, {"type": "Feature", "properties": {"stop_name": "Hoyt St", "daytime_routes": "2 3", "ada": "0"}, "geometry": {"type": "Point", "coordinates": [-73.98473, 40.690545]}}, {"type": "Feature", "properties": {"stop_name": "Borough Hall", "daytime_routes": "2 3 4 5", "ada": "0"}, "geometry": {"type": "Point", "coordinates": [-73.990093, 40.692404]}}, {"type": "Feature", "properties": {"stop_name": "Court St", "daytime_routes": "R", "ada": "0"}, "geometry": {"type": "Point", "coordinates": [-73.991851, 40.694035]}}, {"type": "Feature", "properties": {"stop_name": "Clinton-Washington Avs", "daytime_routes": "G", "ada": "0"}, "geometry": {"type": "Point", "coordinates": [-73.966836, 40.688089]}}, {"type": "Feature", "properties": {"stop_name": "Fulton St", "daytime_routes": "G", "ada": "0"}, "geometry": {"type": "Point", "coordinates": [-73.975375, 40.687119]}}, {"type": "Feature", "properties": {"stop_name": "Park Pl", "daytime_routes": "2 3", "ada": "0"}, "geometry": {"type": "Point", "coordinates": [-73.957758, 40.674772]}}, {"type": "Feature", "properties": {"stop_name": "Nostrand Av", "daytime_routes": "A C", "ada": "0"}, "geometry": {"type": "Point", "coordinates": [-73.950426, 40.680438]}}, {"type": "Feature", "properties": {"stop_name": "Kingston-Throop Avs", "daytime_routes": "A C", "ada": "0"}, "geometry": {"type": "Point", "coordinates": [-73.940858, 40.679921]}}, {"type": "Feature", "properties": {"stop_name": "Utica Av", "daytime_routes": "A C", "ada": "0"}, "geometry": {"type": "Point", "coordinates": [-73.930605, 40.679423]}}, {"type": "Feature", "properties": {"stop_name": "Ralph Av", "daytime_routes": "A C", "ada": "0"}, "geometry": {"type": "Point", "coordinates": [-73.920786, 40.678741]}}, {"type": "Feature", "properties": {"stop_name": "Rockaway Av", "daytime_routes": "A C", "ada": "0"}, "geometry": {"type": "Point", "coordinates": [-73.908571, 40.678114]}}, {"type": "Feature", "properties": {"stop_name": "Liberty Av", "daytime_routes": "A C", "ada": "0"}, "geometry": {"type": "Point", "coordinates": [-73.896832, 40.674542]}}, {"type": "Feature", "properties": {"stop_name": "Van Siclen Av", "daytime_routes": "A C", "ada": "0"}, "geometry": {"type": "Point", "coordinates": [-73.8865, 40.672666]}}, {"type": "Feature", "properties": {"stop_name": "Shepherd Av", "daytime_routes": "A C", "ada": "0"}, "geometry": {"type": "Point", "coordinates": [-73.877035, 40.672456]}}, {"type": "Feature", "properties": {"stop_name": "Cleveland St", "daytime_routes": "A C", "ada": "0"}, "geometry": {"type": "Point", "coordinates": [-73.866627, 40.671987]}}, {"type": "Feature", "properties": {"stop_name": "Euclid Av", "daytime_routes": "A C", "ada": "0"}, "geometry": {"type": "Point", "coordinates": [-73.856706, 40.675345]}}, {"type": "Feature", "properties": {"stop_name": "Broadway Junction", "daytime_routes": "A C J L Z", "ada": "0"}, "geometry": {"type": "Point", "coordinates": [-73.905316, 40.678334]}}, {"type": "Feature", "properties": {"stop_name": "Atlantic Av", "daytime_routes": "L", "ada": "0"}, "geometry": {"type": "Point", "coordinates": [-73.953522, 40.675538]}}, {"type": "Feature", "properties": {"stop_name": "East New York", "daytime_routes": "J Z", "ada": "0"}, "geometry": {"type": "Point", "coordinates": [-73.883698, 40.671987]}}, {"type": "Feature", "properties": {"stop_name": "Hewes St", "daytime_routes": "J M Z", "ada": "0"}, "geometry": {"type": "Point", "coordinates": [-73.95394, 40.706798]}}, {"type": "Feature", "properties": {"stop_name": "Lorimer St", "daytime_routes": "J M Z", "ada": "0"}, "geometry": {"type": "Point", "coordinates": [-73.947408, 40.703811]}}, {"type": "Feature", "properties": {"stop_name": "Flushing Av", "daytime_routes": "J M Z", "ada": "0"}, "geometry": {"type": "Point", "coordinates": [-73.941545, 40.700377]}}, {"type": "Feature", "properties": {"stop_name": "Myrtle-Willoughby Avs", "daytime_routes": "G", "ada": "0"}, "geometry": {"type": "Point", "coordinates": [-73.944872, 40.699814]}}, {"type": "Feature", "properties": {"stop_name": "Bedford-Nostrand Avs", "daytime_routes": "G", "ada": "0"}, "geometry": {"type": "Point", "coordinates": [-73.953939, 40.700525]}}, {"type": "Feature", "properties": {"stop_name": "Classon Av", "daytime_routes": "G", "ada": "0"}, "geometry": {"type": "Point", "coordinates": [-73.95995, 40.688873]}}, {"type": "Feature", "properties": {"stop_name": "Nassau Av", "daytime_routes": "G", "ada": "0"}, "geometry": {"type": "Point", "coordinates": [-73.951277, 40.724635]}}, {"type": "Feature", "properties": {"stop_name": "Greenpoint Av", "daytime_routes": "G", "ada": "0"}, "geometry": {"type": "Point", "coordinates": [-73.954467, 40.731352]}}, {"type": "Feature", "properties": {"stop_name": "21 St", "daytime_routes": "G", "ada": "0"}, "geometry": {"type": "Point", "coordinates": [-73.949837, 40.744065]}}, {"type": "Feature", "properties": {"stop_name": "Queensboro Plaza", "daytime_routes": "N W", "ada": "0"}, "geometry": {"type": "Point", "coordinates": [-73.940202, 40.750582]}}, {"type": "Feature", "properties": {"stop_name": "Court Square", "daytime_routes": "E G M", "ada": "0"}, "geometry": {"type": "Point", "coordinates": [-73.945264, 40.747023]}}, {"type": "Feature", "properties": {"stop_name": "DeKalb Av", "daytime_routes": "B D N Q R", "ada": "0"}, "geometry": {"type": "Point", "coordinates": [-73.98194, 40.690635]}}, {"type": "Feature", "properties": {"stop_name": "Pacific St", "daytime_routes": "B D N Q R", "ada": "0"}, "geometry": {"type": "Point", "coordinates": [-73.978769, 40.683666]}}, {"type": "Feature", "properties": {"stop_name": "36 St", "daytime_routes": "D N R", "ada": "0"}, "geometry": {"type": "Point", "coordinates": [-74.003407, 40.65514]}}, {"type": "Feature", "properties": {"stop_name": "45 St", "daytime_routes": "R", "ada": "0"}, "geometry": {"type": "Point", "coordinates": [-74.010006, 40.648807]}}, {"type": "Feature", "properties": {"stop_name": "53 St", "daytime_routes": "R", "ada": "0"}, "geometry": {"type": "Point", "coordinates": [-74.014034, 40.645098]}}, {"type": "Feature", "properties": {"stop_name": "59 St", "daytime_routes": "R", "ada": "0"}, "geometry": {"type": "Point", "coordinates": [-74.017881, 40.641362]}}, {"type": "Feature", "properties": {"stop_name": "Bay Ridge Av", "daytime_routes": "R", "ada": "0"}, "geometry": {"type": "Point", "coordinates": [-74.023805, 40.634967]}}, {"type": "Feature", "properties": {"stop_name": "77 St", "daytime_routes": "R", "ada": "0"}, "geometry": {"type": "Point", "coordinates": [-74.025761, 40.629742]}}, {"type": "Feature", "properties": {"stop_name": "86 St", "daytime_routes": "R", "ada": "0"}, "geometry": {"type": "Point", "coordinates": [-74.028398, 40.622687]}}, {"type": "Feature", "properties": {"stop_name": "95 St", "daytime_routes": "R", "ada": "0"}, "geometry": {"type": "Point", "coordinates": [-74.030876, 40.616622]}}, {"type": "Feature", "properties": {"stop_name": "Bay Ridge-95 St", "daytime_routes": "R", "ada": "0"}, "geometry": {"type": "Point", "coordinates": [-74.030876, 40.616622]}}, {"type": "Feature", "properties": {"stop_name": "25 St", "daytime_routes": "R", "ada": "0"}, "geometry": {"type": "Point", "coordinates": [-73.998041, 40.660397]}}, {"type": "Feature", "properties": {"stop_name": "Prospect Av", "daytime_routes": "R", "ada": "0"}, "geometry": {"type": "Point", "coordinates": [-73.99379, 40.665449]}}, {"type": "Feature", "properties": {"stop_name": "9 St", "daytime_routes": "R", "ada": "0"}, "geometry": {"type": "Point", "coordinates": [-73.988302, 40.67056]}}, {"type": "Feature", "properties": {"stop_name": "Fulton St", "daytime_routes": "2 3 4 5 A C J Z", "ada": "0"}, "geometry": {"type": "Point", "coordinates": [-74.007792, 40.710368]}}, {"type": "Feature", "properties": {"stop_name": "Wall St", "daytime_routes": "2 3", "ada": "0"}, "geometry": {"type": "Point", "coordinates": [-74.008796, 40.706821]}}, {"type": "Feature", "properties": {"stop_name": "Chambers St", "daytime_routes": "1 2 3 A C", "ada": "0"}, "geometry": {"type": "Point", "coordinates": [-74.009028, 40.714111]}}, {"type": "Feature", "properties": {"stop_name": "Canal St", "daytime_routes": "1 2 A C E", "ada": "0"}, "geometry": {"type": "Point", "coordinates": [-74.004704, 40.718092]}}, {"type": "Feature", "properties": {"stop_name": "Spring St", "daytime_routes": "A C E", "ada": "0"}, "geometry": {"type": "Point", "coordinates": [-74.003197, 40.722055]}}, {"type": "Feature", "properties": {"stop_name": "Houston St", "daytime_routes": "1", "ada": "0"}, "geometry": {"type": "Point", "coordinates": [-74.005367, 40.728251]}}, {"type": "Feature", "properties": {"stop_name": "Christopher St", "daytime_routes": "1", "ada": "0"}, "geometry": {"type": "Point", "coordinates": [-74.007114, 40.732953]}}, {"type": "Feature", "properties": {"stop_name": "14 St", "daytime_routes": "1 2 3", "ada": "0"}, "geometry": {"type": "Point", "coordinates": [-74.000201, 40.737826]}}, {"type": "Feature", "properties": {"stop_name": "14 St", "daytime_routes": "A C E", "ada": "0"}, "geometry": {"type": "Point", "coordinates": [-74.004131, 40.740893]}}, {"type": "Feature", "properties": {"stop_name": "14 St-Union Sq", "daytime_routes": "4 5 6 L N Q R W", "ada": "0"}, "geometry": {"type": "Point", "coordinates": [-73.989951, 40.734673]}}, {"type": "Feature", "properties": {"stop_name": "Times Sq-42 St", "daytime_routes": "1 2 3 7 A C E N Q R W S", "ada": "0"}, "geometry": {"type": "Point", "coordinates": [-73.987691, 40.755477]}}, {"type": "Feature", "properties": {"stop_name": "Grand Central", "daytime_routes": "4 5 6 7 S", "ada": "0"}, "geometry": {"type": "Point", "coordinates": [-73.976848, 40.751776]}}, {"type": "Feature", "properties": {"stop_name": "34 St-Penn Station", "daytime_routes": "1 2 3", "ada": "0"}, "geometry": {"type": "Point", "coordinates": [-73.991959, 40.748817]}}, {"type": "Feature", "properties": {"stop_name": "34 St-Herald Sq", "daytime_routes": "B D F M N Q R W", "ada": "0"}, "geometry": {"type": "Point", "coordinates": [-73.987991, 40.749567]}}, {"type": "Feature", "properties": {"stop_name": "23 St", "daytime_routes": "F M", "ada": "0"}, "geometry": {"type": "Point", "coordinates": [-73.992821, 40.742878]}}, {"type": "Feature", "properties": {"stop_name": "23 St", "daytime_routes": "N R W", "ada": "0"}, "geometry": {"type": "Point", "coordinates": [-73.989244, 40.74181]}}, {"type": "Feature", "properties": {"stop_name": "Jackson Heights-Roosevelt Av", "daytime_routes": "E F M R 7", "ada": "0"}, "geometry": {"type": "Point", "coordinates": [-73.891338, 40.746644]}}, {"type": "Feature", "properties": {"stop_name": "Jamaica Center", "daytime_routes": "E J Z", "ada": "0"}, "geometry": {"type": "Point", "coordinates": [-73.801457, 40.702566]}}, {"type": "Feature", "properties": {"stop_name": "Forest Hills-71 Av", "daytime_routes": "E F M R", "ada": "0"}, "geometry": {"type": "Point", "coordinates": [-73.844521, 40.721691]}}, {"type": "Feature", "properties": {"stop_name": "Astoria-Ditmars Blvd", "daytime_routes": "N W", "ada": "0"}, "geometry": {"type": "Point", "coordinates": [-73.912034, 40.775036]}}, {"type": "Feature", "properties": {"stop_name": "149 St-Grand Concourse", "daytime_routes": "2 3 4 5", "ada": "0"}, "geometry": {"type": "Point", "coordinates": [-73.927351, 40.818375]}}, {"type": "Feature", "properties": {"stop_name": "Fordham Rd", "daytime_routes": "B D", "ada": "0"}, "geometry": {"type": "Point", "coordinates": [-73.897749, 40.861296]}}]}